[{"name":"Tyson Kirckman","phoneNumber":"441-152-4813","dateOfBirth":"01/14/1958","description":"bifurcated","Location":[{"locationID":1,"street":"0134 Vernon Way","city":"Hamilton","state":"Ohio"}],"photographs":[{"photoID":1,"fileName":"http://dummyimage.com/158x127.jpg/5fa2dd/ffffff","dateOfPhoto":"02/23/2016","description":"adapter"},{"photoID":2,"fileName":"http://dummyimage.com/140x173.jpg/cc0000/ffffff","dateOfPhoto":"08/03/2016","description":"mission-critical"},{"photoID":3,"fileName":"http://dummyimage.com/111x126.jpg/cc0000/ffffff","dateOfPhoto":"09/08/2020","description":"Programmable"}]},
{"name":"Cathi Osbaldeston","phoneNumber":"671-506-1029","dateOfBirth":"07/28/2002","description":"Horizontal","Location":[{"locationID":1,"street":"76657 Nevada Avenue","city":"Valley Forge","state":"Pennsylvania"}],"photographs":[{"photoID":1,"fileName":"http://dummyimage.com/135x207.jpg/cc0000/ffffff","dateOfPhoto":"08/23/2019","description":"fault-tolerant"},{"photoID":2,"fileName":"http://dummyimage.com/247x143.jpg/ff4444/ffffff","dateOfPhoto":"11/23/2016","description":"multimedia"},{"photoID":3,"fileName":"http://dummyimage.com/132x186.jpg/5fa2dd/ffffff","dateOfPhoto":"07/09/2017","description":"Object-based"}]},
{"name":"Georgine Dunkerton","phoneNumber":"502-791-8638","dateOfBirth":"12/08/1992","description":"didactic","Location":[{"locationID":1,"street":"684 Fairfield Junction","city":"Kalamazoo","state":"Michigan"}],"photographs":[{"photoID":1,"fileName":"http://dummyimage.com/158x123.jpg/cc0000/ffffff","dateOfPhoto":"08/07/2017","description":"Synchronised"},{"photoID":2,"fileName":"http://dummyimage.com/202x108.jpg/ff4444/ffffff","dateOfPhoto":"09/23/2017","description":"client-driven"},{"photoID":3,"fileName":"http://dummyimage.com/241x163.jpg/dddddd/000000","dateOfPhoto":"08/20/2016","description":"multi-state"}]},
{"name":"Mirabel Benediktsson","phoneNumber":"105-843-5254","dateOfBirth":"11/22/1988","description":"hierarchy","Location":[{"locationID":1,"street":"87411 Fieldstone Plaza","city":"Minneapolis","state":"Minnesota"}],"photographs":[{"photoID":1,"fileName":"http://dummyimage.com/161x201.jpg/5fa2dd/ffffff","dateOfPhoto":"03/02/2019","description":"interactive"},{"photoID":2,"fileName":"http://dummyimage.com/152x230.jpg/5fa2dd/ffffff","dateOfPhoto":"07/30/2016","description":"local area network"},{"photoID":3,"fileName":"http://dummyimage.com/226x150.jpg/dddddd/000000","dateOfPhoto":"06/01/2018","description":"ability"}]},
{"name":"Darlleen Gravener","phoneNumber":"556-830-2134","dateOfBirth":"07/16/1975","description":"client-driven","Location":[{"locationID":1,"street":"5 Roth Place","city":"El Paso","state":"Texas"}],"photographs":[{"photoID":1,"fileName":"http://dummyimage.com/228x221.jpg/ff4444/ffffff","dateOfPhoto":"01/04/2020","description":"bandwidth-monitored"},{"photoID":2,"fileName":"http://dummyimage.com/106x111.jpg/ff4444/ffffff","dateOfPhoto":"12/31/2016","description":"Fully-configurable"},{"photoID":3,"fileName":"http://dummyimage.com/152x194.jpg/5fa2dd/ffffff","dateOfPhoto":"07/04/2017","description":"interactive"}]},
{"name":"Romain Olenov","phoneNumber":"631-992-7177","dateOfBirth":"04/24/1960","description":"Vision-oriented","Location":[{"locationID":1,"street":"13143 Arrowood Pass","city":"Memphis","state":"Tennessee"}],"photographs":[{"photoID":1,"fileName":"http://dummyimage.com/121x106.jpg/5fa2dd/ffffff","dateOfPhoto":"11/01/2019","description":"Virtual"},{"photoID":2,"fileName":"http://dummyimage.com/231x170.jpg/5fa2dd/ffffff","dateOfPhoto":"05/15/2017","description":"methodology"},{"photoID":3,"fileName":"http://dummyimage.com/187x140.jpg/5fa2dd/ffffff","dateOfPhoto":"05/30/2018","description":"benchmark"}]},
{"name":"Kalil Yurkov","phoneNumber":"251-781-2762","dateOfBirth":"04/10/1989","description":"composite","Location":[{"locationID":1,"street":"298 Messerschmidt Place","city":"Petaluma","state":"California"}],"photographs":[{"photoID":1,"fileName":"http://dummyimage.com/184x187.jpg/dddddd/000000","dateOfPhoto":"07/04/2020","description":"high-level"},{"photoID":2,"fileName":"http://dummyimage.com/147x132.jpg/dddddd/000000","dateOfPhoto":"09/08/2020","description":"help-desk"},{"photoID":3,"fileName":"http://dummyimage.com/200x184.jpg/5fa2dd/ffffff","dateOfPhoto":"07/22/2017","description":"Sharable"}]},
{"name":"Armin Thickins","phoneNumber":"724-334-7275","dateOfBirth":"12/26/2006","description":"Synergized","Location":[{"locationID":1,"street":"4434 Brentwood Lane","city":"Houston","state":"Texas"}],"photographs":[{"photoID":1,"fileName":"http://dummyimage.com/238x182.jpg/5fa2dd/ffffff","dateOfPhoto":"05/11/2018","description":"database"},{"photoID":2,"fileName":"http://dummyimage.com/185x155.jpg/cc0000/ffffff","dateOfPhoto":"09/11/2019","description":"Polarised"},{"photoID":3,"fileName":"http://dummyimage.com/243x154.jpg/dddddd/000000","dateOfPhoto":"09/20/2019","description":"Monitored"}]},
{"name":"Myranda Hissett","phoneNumber":"269-107-0971","dateOfBirth":"06/07/2004","description":"motivating","Location":[{"locationID":1,"street":"1575 Basil Lane","city":"Scranton","state":"Pennsylvania"}],"photographs":[{"photoID":1,"fileName":"http://dummyimage.com/228x137.jpg/dddddd/000000","dateOfPhoto":"03/23/2020","description":"protocol"},{"photoID":2,"fileName":"http://dummyimage.com/250x224.jpg/dddddd/000000","dateOfPhoto":"12/23/2016","description":"Versatile"},{"photoID":3,"fileName":"http://dummyimage.com/127x202.jpg/5fa2dd/ffffff","dateOfPhoto":"03/22/2016","description":"Graphical User Interface"}]},
{"name":"Rodolph Kelleher","phoneNumber":"572-658-3502","dateOfBirth":"08/10/1965","description":"time-frame","Location":[{"locationID":1,"street":"272 Service Terrace","city":"Milwaukee","state":"Wisconsin"}],"photographs":[{"photoID":1,"fileName":"http://dummyimage.com/249x166.jpg/dddddd/000000","dateOfPhoto":"11/19/2019","description":"Extended"},{"photoID":2,"fileName":"http://dummyimage.com/204x236.jpg/5fa2dd/ffffff","dateOfPhoto":"08/05/2017","description":"well-modulated"},{"photoID":3,"fileName":"http://dummyimage.com/221x240.jpg/5fa2dd/ffffff","dateOfPhoto":"04/06/2017","description":"tertiary"}]},
{"name":"Blithe Mewburn","phoneNumber":"850-548-5844","dateOfBirth":"07/12/1950","description":"synergy","Location":[{"locationID":1,"street":"13882 Coolidge Hill","city":"Santa Cruz","state":"California"}],"photographs":[{"photoID":1,"fileName":"http://dummyimage.com/170x149.jpg/5fa2dd/ffffff","dateOfPhoto":"10/13/2017","description":"Innovative"},{"photoID":2,"fileName":"http://dummyimage.com/147x223.jpg/ff4444/ffffff","dateOfPhoto":"09/28/2017","description":"Total"},{"photoID":3,"fileName":"http://dummyimage.com/197x213.jpg/cc0000/ffffff","dateOfPhoto":"07/07/2016","description":"utilisation"}]},
{"name":"Bordy Crinage","phoneNumber":"356-317-7241","dateOfBirth":"03/21/1988","description":"bandwidth-monitored","Location":[{"locationID":1,"street":"77 Kings Park","city":"Lancaster","state":"Pennsylvania"}],"photographs":[{"photoID":1,"fileName":"http://dummyimage.com/207x207.jpg/ff4444/ffffff","dateOfPhoto":"07/14/2019","description":"success"},{"photoID":2,"fileName":"http://dummyimage.com/170x125.jpg/dddddd/000000","dateOfPhoto":"12/19/2018","description":"logistical"},{"photoID":3,"fileName":"http://dummyimage.com/138x188.jpg/cc0000/ffffff","dateOfPhoto":"03/14/2018","description":"disintermediate"}]},
{"name":"Tripp Calleja","phoneNumber":"917-847-8086","dateOfBirth":"06/22/1966","description":"bottom-line","Location":[{"locationID":1,"street":"0614 Hollow Ridge Terrace","city":"Conroe","state":"Texas"}],"photographs":[{"photoID":1,"fileName":"http://dummyimage.com/237x180.jpg/ff4444/ffffff","dateOfPhoto":"04/30/2020","description":"didactic"},{"photoID":2,"fileName":"http://dummyimage.com/179x232.jpg/dddddd/000000","dateOfPhoto":"07/17/2016","description":"adapter"},{"photoID":3,"fileName":"http://dummyimage.com/232x155.jpg/ff4444/ffffff","dateOfPhoto":"03/01/2017","description":"implementation"}]},
{"name":"Emmi Meers","phoneNumber":"174-957-9082","dateOfBirth":"07/13/2005","description":"empowering","Location":[{"locationID":1,"street":"550 Sachs Center","city":"New York City","state":"New York"}],"photographs":[{"photoID":1,"fileName":"http://dummyimage.com/249x135.jpg/ff4444/ffffff","dateOfPhoto":"11/03/2017","description":"Operative"},{"photoID":2,"fileName":"http://dummyimage.com/143x248.jpg/cc0000/ffffff","dateOfPhoto":"06/30/2017","description":"Profit-focused"},{"photoID":3,"fileName":"http://dummyimage.com/249x156.jpg/ff4444/ffffff","dateOfPhoto":"04/14/2016","description":"artificial intelligence"}]},
{"name":"Raphaela Duferie","phoneNumber":"781-644-8199","dateOfBirth":"08/09/1934","description":"orchestration","Location":[{"locationID":1,"street":"35 Sheridan Center","city":"Baton Rouge","state":"Louisiana"}],"photographs":[{"photoID":1,"fileName":"http://dummyimage.com/173x100.jpg/dddddd/000000","dateOfPhoto":"05/16/2020","description":"Business-focused"},{"photoID":2,"fileName":"http://dummyimage.com/138x182.jpg/cc0000/ffffff","dateOfPhoto":"12/11/2019","description":"4th generation"},{"photoID":3,"fileName":"http://dummyimage.com/198x177.jpg/dddddd/000000","dateOfPhoto":"09/01/2018","description":"structure"}]},
{"name":"Poppy Edon","phoneNumber":"746-586-6992","dateOfBirth":"01/15/2018","description":"Ameliorated","Location":[{"locationID":1,"street":"90689 Fremont Way","city":"Macon","state":"Georgia"}],"photographs":[{"photoID":1,"fileName":"http://dummyimage.com/123x194.jpg/5fa2dd/ffffff","dateOfPhoto":"01/30/2019","description":"Enhanced"},{"photoID":2,"fileName":"http://dummyimage.com/196x199.jpg/ff4444/ffffff","dateOfPhoto":"07/24/2017","description":"hierarchy"},{"photoID":3,"fileName":"http://dummyimage.com/199x145.jpg/dddddd/000000","dateOfPhoto":"02/14/2017","description":"full-range"}]},
{"name":"Dionysus Piche","phoneNumber":"922-586-2124","dateOfBirth":"02/02/1993","description":"analyzer","Location":[{"locationID":1,"street":"13 Erie Lane","city":"Lincoln","state":"Nebraska"}],"photographs":[{"photoID":1,"fileName":"http://dummyimage.com/116x231.jpg/cc0000/ffffff","dateOfPhoto":"05/12/2017","description":"Quality-focused"},{"photoID":2,"fileName":"http://dummyimage.com/214x184.jpg/ff4444/ffffff","dateOfPhoto":"02/08/2017","description":"stable"},{"photoID":3,"fileName":"http://dummyimage.com/226x224.jpg/dddddd/000000","dateOfPhoto":"09/17/2016","description":"Advanced"}]},
{"name":"Rochelle Arp","phoneNumber":"463-356-8104","dateOfBirth":"04/07/1978","description":"demand-driven","Location":[{"locationID":1,"street":"97 Cambridge Street","city":"Huntsville","state":"Alabama"}],"photographs":[{"photoID":1,"fileName":"http://dummyimage.com/126x245.jpg/cc0000/ffffff","dateOfPhoto":"10/20/2019","description":"Down-sized"},{"photoID":2,"fileName":"http://dummyimage.com/168x146.jpg/5fa2dd/ffffff","dateOfPhoto":"12/18/2015","description":"object-oriented"},{"photoID":3,"fileName":"http://dummyimage.com/116x219.jpg/dddddd/000000","dateOfPhoto":"03/24/2020","description":"encryption"}]},
{"name":"Winslow Keeting","phoneNumber":"112-760-0817","dateOfBirth":"09/13/1945","description":"homogeneous","Location":[{"locationID":1,"street":"9050 Old Gate Drive","city":"Macon","state":"Georgia"}],"photographs":[{"photoID":1,"fileName":"http://dummyimage.com/236x160.jpg/5fa2dd/ffffff","dateOfPhoto":"11/22/2015","description":"Public-key"},{"photoID":2,"fileName":"http://dummyimage.com/156x231.jpg/cc0000/ffffff","dateOfPhoto":"06/16/2020","description":"Polarised"},{"photoID":3,"fileName":"http://dummyimage.com/113x244.jpg/5fa2dd/ffffff","dateOfPhoto":"12/21/2019","description":"Cloned"}]},
{"name":"Prescott McMoyer","phoneNumber":"594-780-1373","dateOfBirth":"01/03/1977","description":"leading edge","Location":[{"locationID":1,"street":"72 Bunting Avenue","city":"Lehigh Acres","state":"Florida"}],"photographs":[{"photoID":1,"fileName":"http://dummyimage.com/234x121.jpg/dddddd/000000","dateOfPhoto":"03/26/2017","description":"stable"},{"photoID":2,"fileName":"http://dummyimage.com/156x203.jpg/cc0000/ffffff","dateOfPhoto":"12/31/2019","description":"capacity"},{"photoID":3,"fileName":"http://dummyimage.com/249x195.jpg/dddddd/000000","dateOfPhoto":"02/18/2016","description":"Virtual"}]},
{"name":"Krispin Grayson","phoneNumber":"483-176-9867","dateOfBirth":"12/10/1954","description":"Graphic Interface","Location":[{"locationID":1,"street":"5843 Linden Lane","city":"Littleton","state":"Colorado"}],"photographs":[{"photoID":1,"fileName":"http://dummyimage.com/106x218.jpg/cc0000/ffffff","dateOfPhoto":"06/11/2018","description":"Open-architected"},{"photoID":2,"fileName":"http://dummyimage.com/122x192.jpg/dddddd/000000","dateOfPhoto":"05/21/2019","description":"hybrid"},{"photoID":3,"fileName":"http://dummyimage.com/200x144.jpg/dddddd/000000","dateOfPhoto":"12/15/2016","description":"zero defect"}]},
{"name":"Biron Salkild","phoneNumber":"376-974-5990","dateOfBirth":"08/20/1995","description":"asynchronous","Location":[{"locationID":1,"street":"41668 Lien Point","city":"Philadelphia","state":"Pennsylvania"}],"photographs":[{"photoID":1,"fileName":"http://dummyimage.com/241x206.jpg/cc0000/ffffff","dateOfPhoto":"04/04/2016","description":"reciprocal"},{"photoID":2,"fileName":"http://dummyimage.com/169x114.jpg/dddddd/000000","dateOfPhoto":"09/05/2019","description":"Profit-focused"},{"photoID":3,"fileName":"http://dummyimage.com/208x226.jpg/5fa2dd/ffffff","dateOfPhoto":"05/06/2016","description":"service-desk"}]},
{"name":"Benedikta Bastistini","phoneNumber":"305-369-4997","dateOfBirth":"05/25/1984","description":"Open-architected","Location":[{"locationID":1,"street":"84493 Mitchell Place","city":"Topeka","state":"Kansas"}],"photographs":[{"photoID":1,"fileName":"http://dummyimage.com/141x145.jpg/5fa2dd/ffffff","dateOfPhoto":"07/08/2017","description":"Multi-lateral"},{"photoID":2,"fileName":"http://dummyimage.com/198x229.jpg/ff4444/ffffff","dateOfPhoto":"07/18/2019","description":"Visionary"},{"photoID":3,"fileName":"http://dummyimage.com/152x180.jpg/5fa2dd/ffffff","dateOfPhoto":"03/06/2016","description":"systematic"}]},
{"name":"Marielle Chaplin","phoneNumber":"465-452-8035","dateOfBirth":"10/17/1987","description":"Front-line","Location":[{"locationID":1,"street":"2931 Waywood Junction","city":"Provo","state":"Utah"}],"photographs":[{"photoID":1,"fileName":"http://dummyimage.com/181x138.jpg/5fa2dd/ffffff","dateOfPhoto":"04/02/2017","description":"Customer-focused"},{"photoID":2,"fileName":"http://dummyimage.com/170x182.jpg/5fa2dd/ffffff","dateOfPhoto":"11/04/2018","description":"moderator"},{"photoID":3,"fileName":"http://dummyimage.com/100x177.jpg/5fa2dd/ffffff","dateOfPhoto":"01/29/2016","description":"well-modulated"}]},
{"name":"Prentice Trehearne","phoneNumber":"167-892-4304","dateOfBirth":"06/10/1962","description":"matrices","Location":[{"locationID":1,"street":"49 Forest Park","city":"Gainesville","state":"Georgia"}],"photographs":[{"photoID":1,"fileName":"http://dummyimage.com/164x131.jpg/ff4444/ffffff","dateOfPhoto":"12/24/2016","description":"national"},{"photoID":2,"fileName":"http://dummyimage.com/230x111.jpg/cc0000/ffffff","dateOfPhoto":"10/28/2019","description":"superstructure"},{"photoID":3,"fileName":"http://dummyimage.com/165x189.jpg/ff4444/ffffff","dateOfPhoto":"07/21/2019","description":"Universal"}]},
{"name":"Frederich Aitchinson","phoneNumber":"714-117-3022","dateOfBirth":"08/08/1948","description":"matrices","Location":[{"locationID":1,"street":"51 Rowland Terrace","city":"Huntington","state":"West Virginia"}],"photographs":[{"photoID":1,"fileName":"http://dummyimage.com/173x247.jpg/cc0000/ffffff","dateOfPhoto":"12/22/2016","description":"full-range"},{"photoID":2,"fileName":"http://dummyimage.com/177x144.jpg/cc0000/ffffff","dateOfPhoto":"08/21/2020","description":"concept"},{"photoID":3,"fileName":"http://dummyimage.com/147x238.jpg/cc0000/ffffff","dateOfPhoto":"09/22/2018","description":"Horizontal"}]},
{"name":"Filbert Baignard","phoneNumber":"164-657-6921","dateOfBirth":"10/05/1938","description":"Fundamental","Location":[{"locationID":1,"street":"39 Pierstorff Crossing","city":"Richmond","state":"Virginia"}],"photographs":[{"photoID":1,"fileName":"http://dummyimage.com/145x134.jpg/dddddd/000000","dateOfPhoto":"12/01/2017","description":"Cloned"},{"photoID":2,"fileName":"http://dummyimage.com/105x196.jpg/ff4444/ffffff","dateOfPhoto":"06/13/2017","description":"benchmark"},{"photoID":3,"fileName":"http://dummyimage.com/145x225.jpg/ff4444/ffffff","dateOfPhoto":"12/15/2015","description":"artificial intelligence"}]},
{"name":"Demeter Spearing","phoneNumber":"172-468-0371","dateOfBirth":"10/01/1933","description":"Streamlined","Location":[{"locationID":1,"street":"719 Lien Hill","city":"Baltimore","state":"Maryland"}],"photographs":[{"photoID":1,"fileName":"http://dummyimage.com/145x199.jpg/ff4444/ffffff","dateOfPhoto":"01/23/2019","description":"demand-driven"},{"photoID":2,"fileName":"http://dummyimage.com/173x137.jpg/ff4444/ffffff","dateOfPhoto":"04/30/2016","description":"concept"},{"photoID":3,"fileName":"http://dummyimage.com/249x172.jpg/5fa2dd/ffffff","dateOfPhoto":"08/16/2018","description":"product"}]},
{"name":"Justine Beviss","phoneNumber":"833-695-7018","dateOfBirth":"03/19/1990","description":"standardization","Location":[{"locationID":1,"street":"39 Magdeline Center","city":"Van Nuys","state":"California"}],"photographs":[{"photoID":1,"fileName":"http://dummyimage.com/176x115.jpg/dddddd/000000","dateOfPhoto":"12/15/2019","description":"Triple-buffered"},{"photoID":2,"fileName":"http://dummyimage.com/238x102.jpg/ff4444/ffffff","dateOfPhoto":"03/07/2017","description":"strategy"},{"photoID":3,"fileName":"http://dummyimage.com/240x126.jpg/ff4444/ffffff","dateOfPhoto":"11/30/2018","description":"disintermediate"}]},
{"name":"Evangeline Bonifacio","phoneNumber":"792-992-0597","dateOfBirth":"08/31/1960","description":"Assimilated","Location":[{"locationID":1,"street":"10576 East Terrace","city":"Brooklyn","state":"New York"}],"photographs":[{"photoID":1,"fileName":"http://dummyimage.com/243x189.jpg/5fa2dd/ffffff","dateOfPhoto":"03/01/2019","description":"Virtual"},{"photoID":2,"fileName":"http://dummyimage.com/235x147.jpg/dddddd/000000","dateOfPhoto":"01/09/2019","description":"stable"},{"photoID":3,"fileName":"http://dummyimage.com/124x137.jpg/dddddd/000000","dateOfPhoto":"08/22/2020","description":"architecture"}]},
{"name":"Wynn Fullard","phoneNumber":"333-355-3344","dateOfBirth":"07/08/1970","description":"frame","Location":[{"locationID":1,"street":"76 Dryden Drive","city":"Pittsburgh","state":"Pennsylvania"}],"photographs":[{"photoID":1,"fileName":"http://dummyimage.com/200x185.jpg/cc0000/ffffff","dateOfPhoto":"06/24/2016","description":"solution"},{"photoID":2,"fileName":"http://dummyimage.com/212x137.jpg/ff4444/ffffff","dateOfPhoto":"01/14/2017","description":"methodology"},{"photoID":3,"fileName":"http://dummyimage.com/176x232.jpg/5fa2dd/ffffff","dateOfPhoto":"08/17/2018","description":"dynamic"}]},
{"name":"Hedvig Roxburch","phoneNumber":"610-389-8961","dateOfBirth":"12/29/1975","description":"capacity","Location":[{"locationID":1,"street":"09 Crownhardt Road","city":"Waco","state":"Texas"}],"photographs":[{"photoID":1,"fileName":"http://dummyimage.com/231x191.jpg/dddddd/000000","dateOfPhoto":"08/16/2017","description":"Digitized"},{"photoID":2,"fileName":"http://dummyimage.com/232x126.jpg/cc0000/ffffff","dateOfPhoto":"05/10/2019","description":"Quality-focused"},{"photoID":3,"fileName":"http://dummyimage.com/164x173.jpg/ff4444/ffffff","dateOfPhoto":"03/21/2018","description":"responsive"}]},
{"name":"Salomon Pedracci","phoneNumber":"725-256-8850","dateOfBirth":"02/19/1970","description":"Secured","Location":[{"locationID":1,"street":"71605 Trailsway Drive","city":"Louisville","state":"Kentucky"}],"photographs":[{"photoID":1,"fileName":"http://dummyimage.com/166x240.jpg/ff4444/ffffff","dateOfPhoto":"02/17/2018","description":"zero defect"},{"photoID":2,"fileName":"http://dummyimage.com/181x187.jpg/dddddd/000000","dateOfPhoto":"03/04/2018","description":"projection"},{"photoID":3,"fileName":"http://dummyimage.com/222x128.jpg/5fa2dd/ffffff","dateOfPhoto":"08/27/2020","description":"Expanded"}]},
{"name":"Kile Tull","phoneNumber":"887-701-8899","dateOfBirth":"09/03/1953","description":"Progressive","Location":[{"locationID":1,"street":"1 Mallard Junction","city":"Peoria","state":"Illinois"}],"photographs":[{"photoID":1,"fileName":"http://dummyimage.com/175x231.jpg/5fa2dd/ffffff","dateOfPhoto":"04/20/2018","description":"Advanced"},{"photoID":2,"fileName":"http://dummyimage.com/115x131.jpg/cc0000/ffffff","dateOfPhoto":"01/11/2017","description":"challenge"},{"photoID":3,"fileName":"http://dummyimage.com/140x242.jpg/5fa2dd/ffffff","dateOfPhoto":"10/06/2017","description":"Monitored"}]},
{"name":"Terrel Kennion","phoneNumber":"454-610-4888","dateOfBirth":"01/14/1994","description":"intermediate","Location":[{"locationID":1,"street":"1 Lighthouse Bay Pass","city":"Stamford","state":"Connecticut"}],"photographs":[{"photoID":1,"fileName":"http://dummyimage.com/116x211.jpg/ff4444/ffffff","dateOfPhoto":"06/15/2018","description":"zero administration"},{"photoID":2,"fileName":"http://dummyimage.com/242x194.jpg/ff4444/ffffff","dateOfPhoto":"09/29/2019","description":"system engine"},{"photoID":3,"fileName":"http://dummyimage.com/220x106.jpg/cc0000/ffffff","dateOfPhoto":"04/11/2016","description":"Right-sized"}]},
{"name":"Ravid Blincko","phoneNumber":"323-338-5252","dateOfBirth":"10/30/2004","description":"Object-based","Location":[{"locationID":1,"street":"70 Carey Parkway","city":"Wilmington","state":"Delaware"}],"photographs":[{"photoID":1,"fileName":"http://dummyimage.com/114x153.jpg/cc0000/ffffff","dateOfPhoto":"11/21/2016","description":"Configurable"},{"photoID":2,"fileName":"http://dummyimage.com/118x216.jpg/ff4444/ffffff","dateOfPhoto":"08/22/2020","description":"monitoring"},{"photoID":3,"fileName":"http://dummyimage.com/203x112.jpg/ff4444/ffffff","dateOfPhoto":"08/08/2016","description":"matrix"}]},
{"name":"Zia Riccardini","phoneNumber":"836-384-3350","dateOfBirth":"11/15/1969","description":"scalable","Location":[{"locationID":1,"street":"57 Warbler Parkway","city":"Chicago","state":"Illinois"}],"photographs":[{"photoID":1,"fileName":"http://dummyimage.com/235x223.jpg/dddddd/000000","dateOfPhoto":"12/04/2019","description":"benchmark"},{"photoID":2,"fileName":"http://dummyimage.com/119x178.jpg/cc0000/ffffff","dateOfPhoto":"07/17/2019","description":"multimedia"},{"photoID":3,"fileName":"http://dummyimage.com/223x250.jpg/ff4444/ffffff","dateOfPhoto":"06/04/2019","description":"Operative"}]},
{"name":"Martino Graffin","phoneNumber":"210-568-0277","dateOfBirth":"05/02/2004","description":"Exclusive","Location":[{"locationID":1,"street":"89883 Rusk Point","city":"Nashville","state":"Tennessee"}],"photographs":[{"photoID":1,"fileName":"http://dummyimage.com/159x190.jpg/cc0000/ffffff","dateOfPhoto":"03/23/2019","description":"4th generation"},{"photoID":2,"fileName":"http://dummyimage.com/223x188.jpg/cc0000/ffffff","dateOfPhoto":"11/07/2015","description":"productivity"},{"photoID":3,"fileName":"http://dummyimage.com/163x121.jpg/5fa2dd/ffffff","dateOfPhoto":"09/18/2019","description":"Proactive"}]},
{"name":"Davon Ipwell","phoneNumber":"960-525-7441","dateOfBirth":"10/03/1950","description":"value-added","Location":[{"locationID":1,"street":"27 Continental Hill","city":"New York City","state":"New York"}],"photographs":[{"photoID":1,"fileName":"http://dummyimage.com/145x238.jpg/dddddd/000000","dateOfPhoto":"12/07/2016","description":"Configurable"},{"photoID":2,"fileName":"http://dummyimage.com/106x131.jpg/dddddd/000000","dateOfPhoto":"05/05/2020","description":"dedicated"},{"photoID":3,"fileName":"http://dummyimage.com/101x168.jpg/ff4444/ffffff","dateOfPhoto":"10/23/2016","description":"User-centric"}]},
{"name":"Nicolea Kilban","phoneNumber":"737-924-7223","dateOfBirth":"12/28/1976","description":"Total","Location":[{"locationID":1,"street":"369 Buell Place","city":"Escondido","state":"California"}],"photographs":[{"photoID":1,"fileName":"http://dummyimage.com/155x248.jpg/dddddd/000000","dateOfPhoto":"03/09/2019","description":"client-driven"},{"photoID":2,"fileName":"http://dummyimage.com/198x223.jpg/cc0000/ffffff","dateOfPhoto":"04/06/2020","description":"next generation"},{"photoID":3,"fileName":"http://dummyimage.com/122x152.jpg/dddddd/000000","dateOfPhoto":"11/18/2016","description":"intangible"}]},
{"name":"Modesta Westmorland","phoneNumber":"523-622-6174","dateOfBirth":"05/01/1932","description":"core","Location":[{"locationID":1,"street":"8317 Ridge Oak Point","city":"Scranton","state":"Pennsylvania"}],"photographs":[{"photoID":1,"fileName":"http://dummyimage.com/145x250.jpg/cc0000/ffffff","dateOfPhoto":"02/17/2017","description":"service-desk"},{"photoID":2,"fileName":"http://dummyimage.com/215x192.jpg/dddddd/000000","dateOfPhoto":"08/12/2016","description":"web-enabled"},{"photoID":3,"fileName":"http://dummyimage.com/231x230.jpg/cc0000/ffffff","dateOfPhoto":"10/30/2016","description":"Distributed"}]},
{"name":"Kristofer Hollows","phoneNumber":"658-346-1551","dateOfBirth":"01/11/2007","description":"standardization","Location":[{"locationID":1,"street":"6964 Orin Park","city":"Oakland","state":"California"}],"photographs":[{"photoID":1,"fileName":"http://dummyimage.com/247x212.jpg/ff4444/ffffff","dateOfPhoto":"12/01/2017","description":"policy"},{"photoID":2,"fileName":"http://dummyimage.com/115x127.jpg/dddddd/000000","dateOfPhoto":"12/24/2017","description":"Monitored"},{"photoID":3,"fileName":"http://dummyimage.com/249x111.jpg/ff4444/ffffff","dateOfPhoto":"10/03/2016","description":"24 hour"}]},
{"name":"Ludovico McCurtain","phoneNumber":"867-863-2576","dateOfBirth":"01/09/2009","description":"Seamless","Location":[{"locationID":1,"street":"3413 Westridge Street","city":"Lubbock","state":"Texas"}],"photographs":[{"photoID":1,"fileName":"http://dummyimage.com/176x171.jpg/cc0000/ffffff","dateOfPhoto":"01/16/2018","description":"scalable"},{"photoID":2,"fileName":"http://dummyimage.com/206x230.jpg/ff4444/ffffff","dateOfPhoto":"09/21/2020","description":"Open-architected"},{"photoID":3,"fileName":"http://dummyimage.com/149x176.jpg/5fa2dd/ffffff","dateOfPhoto":"07/10/2016","description":"Profit-focused"}]},
{"name":"Rhody Cashell","phoneNumber":"356-357-4138","dateOfBirth":"07/10/1998","description":"Versatile","Location":[{"locationID":1,"street":"2318 Westend Trail","city":"Evansville","state":"Indiana"}],"photographs":[{"photoID":1,"fileName":"http://dummyimage.com/212x188.jpg/cc0000/ffffff","dateOfPhoto":"12/31/2017","description":"approach"},{"photoID":2,"fileName":"http://dummyimage.com/179x170.jpg/ff4444/ffffff","dateOfPhoto":"09/10/2020","description":"web-enabled"},{"photoID":3,"fileName":"http://dummyimage.com/222x118.jpg/cc0000/ffffff","dateOfPhoto":"02/09/2017","description":"Vision-oriented"}]},
{"name":"Lawrence Pepineaux","phoneNumber":"544-493-8309","dateOfBirth":"12/26/2005","description":"methodical","Location":[{"locationID":1,"street":"82 Heath Parkway","city":"Orlando","state":"Florida"}],"photographs":[{"photoID":1,"fileName":"http://dummyimage.com/232x131.jpg/5fa2dd/ffffff","dateOfPhoto":"05/16/2020","description":"budgetary management"},{"photoID":2,"fileName":"http://dummyimage.com/246x102.jpg/cc0000/ffffff","dateOfPhoto":"06/17/2018","description":"systematic"},{"photoID":3,"fileName":"http://dummyimage.com/189x219.jpg/5fa2dd/ffffff","dateOfPhoto":"12/02/2017","description":"Synergistic"}]},
{"name":"Clemmie Pollett","phoneNumber":"358-365-5299","dateOfBirth":"06/19/1987","description":"approach","Location":[{"locationID":1,"street":"1537 Hansons Parkway","city":"San Antonio","state":"Texas"}],"photographs":[{"photoID":1,"fileName":"http://dummyimage.com/223x108.jpg/ff4444/ffffff","dateOfPhoto":"08/04/2017","description":"well-modulated"},{"photoID":2,"fileName":"http://dummyimage.com/106x248.jpg/ff4444/ffffff","dateOfPhoto":"03/26/2019","description":"Advanced"},{"photoID":3,"fileName":"http://dummyimage.com/149x218.jpg/ff4444/ffffff","dateOfPhoto":"09/23/2016","description":"Public-key"}]},
{"name":"Ambrosio Atthow","phoneNumber":"806-938-9694","dateOfBirth":"01/03/1964","description":"collaboration","Location":[{"locationID":1,"street":"4483 Haas Road","city":"Los Angeles","state":"California"}],"photographs":[{"photoID":1,"fileName":"http://dummyimage.com/169x160.jpg/ff4444/ffffff","dateOfPhoto":"04/19/2019","description":"Function-based"},{"photoID":2,"fileName":"http://dummyimage.com/175x155.jpg/dddddd/000000","dateOfPhoto":"02/04/2018","description":"Digitized"},{"photoID":3,"fileName":"http://dummyimage.com/151x178.jpg/ff4444/ffffff","dateOfPhoto":"03/15/2019","description":"composite"}]},
{"name":"Fulvia Ezzle","phoneNumber":"860-185-1662","dateOfBirth":"04/06/2016","description":"infrastructure","Location":[{"locationID":1,"street":"85 Golden Leaf Hill","city":"Jacksonville","state":"Florida"}],"photographs":[{"photoID":1,"fileName":"http://dummyimage.com/149x177.jpg/ff4444/ffffff","dateOfPhoto":"06/03/2016","description":"algorithm"},{"photoID":2,"fileName":"http://dummyimage.com/110x184.jpg/dddddd/000000","dateOfPhoto":"11/17/2018","description":"holistic"},{"photoID":3,"fileName":"http://dummyimage.com/101x163.jpg/ff4444/ffffff","dateOfPhoto":"05/31/2016","description":"exuding"}]},
{"name":"Shaughn Gambles","phoneNumber":"268-332-1823","dateOfBirth":"04/23/1985","description":"methodical","Location":[{"locationID":1,"street":"7 Northland Way","city":"Los Angeles","state":"California"}],"photographs":[{"photoID":1,"fileName":"http://dummyimage.com/148x121.jpg/cc0000/ffffff","dateOfPhoto":"02/15/2019","description":"analyzer"},{"photoID":2,"fileName":"http://dummyimage.com/152x123.jpg/cc0000/ffffff","dateOfPhoto":"10/31/2015","description":"Self-enabling"},{"photoID":3,"fileName":"http://dummyimage.com/174x150.jpg/cc0000/ffffff","dateOfPhoto":"09/11/2019","description":"moderator"}]},
{"name":"Jessalin Jahnel","phoneNumber":"253-632-1248","dateOfBirth":"10/06/1943","description":"system-worthy","Location":[{"locationID":1,"street":"4 Harbort Terrace","city":"Fresno","state":"California"}],"photographs":[{"photoID":1,"fileName":"http://dummyimage.com/153x182.jpg/dddddd/000000","dateOfPhoto":"01/21/2017","description":"throughput"},{"photoID":2,"fileName":"http://dummyimage.com/118x145.jpg/dddddd/000000","dateOfPhoto":"07/25/2018","description":"application"},{"photoID":3,"fileName":"http://dummyimage.com/160x168.jpg/ff4444/ffffff","dateOfPhoto":"07/10/2019","description":"User-friendly"}]},
{"name":"Nissy Zanneli","phoneNumber":"897-290-2163","dateOfBirth":"10/04/2004","description":"Organized","Location":[{"locationID":1,"street":"30 Blackbird Park","city":"Los Angeles","state":"California"}],"photographs":[{"photoID":1,"fileName":"http://dummyimage.com/244x239.jpg/ff4444/ffffff","dateOfPhoto":"07/17/2016","description":"infrastructure"},{"photoID":2,"fileName":"http://dummyimage.com/231x248.jpg/dddddd/000000","dateOfPhoto":"12/27/2015","description":"Sharable"},{"photoID":3,"fileName":"http://dummyimage.com/240x112.jpg/ff4444/ffffff","dateOfPhoto":"08/27/2020","description":"stable"}]},
{"name":"Arleen Quarmby","phoneNumber":"830-342-0508","dateOfBirth":"10/17/2017","description":"approach","Location":[{"locationID":1,"street":"01 Rigney Road","city":"New York City","state":"New York"}],"photographs":[{"photoID":1,"fileName":"http://dummyimage.com/170x250.jpg/cc0000/ffffff","dateOfPhoto":"06/15/2016","description":"Ameliorated"},{"photoID":2,"fileName":"http://dummyimage.com/125x195.jpg/dddddd/000000","dateOfPhoto":"03/11/2016","description":"Right-sized"},{"photoID":3,"fileName":"http://dummyimage.com/216x203.jpg/dddddd/000000","dateOfPhoto":"03/18/2017","description":"algorithm"}]},
{"name":"Pammy Rubroe","phoneNumber":"882-883-3138","dateOfBirth":"05/10/1980","description":"Cross-group","Location":[{"locationID":1,"street":"912 Little Fleur Junction","city":"Modesto","state":"California"}],"photographs":[{"photoID":1,"fileName":"http://dummyimage.com/227x191.jpg/5fa2dd/ffffff","dateOfPhoto":"06/02/2017","description":"standardization"},{"photoID":2,"fileName":"http://dummyimage.com/166x109.jpg/ff4444/ffffff","dateOfPhoto":"02/24/2020","description":"Total"},{"photoID":3,"fileName":"http://dummyimage.com/202x118.jpg/ff4444/ffffff","dateOfPhoto":"05/16/2018","description":"Vision-oriented"}]},
{"name":"Shannon Fernao","phoneNumber":"524-209-7900","dateOfBirth":"11/08/2014","description":"Cross-platform","Location":[{"locationID":1,"street":"06965 Caliangt Circle","city":"Savannah","state":"Georgia"}],"photographs":[{"photoID":1,"fileName":"http://dummyimage.com/193x196.jpg/5fa2dd/ffffff","dateOfPhoto":"03/20/2018","description":"national"},{"photoID":2,"fileName":"http://dummyimage.com/124x247.jpg/cc0000/ffffff","dateOfPhoto":"03/16/2019","description":"Stand-alone"},{"photoID":3,"fileName":"http://dummyimage.com/145x191.jpg/cc0000/ffffff","dateOfPhoto":"07/12/2020","description":"Sharable"}]},
{"name":"Wade Breddy","phoneNumber":"682-915-5266","dateOfBirth":"04/06/1933","description":"neural-net","Location":[{"locationID":1,"street":"50588 Holy Cross Plaza","city":"Seattle","state":"Washington"}],"photographs":[{"photoID":1,"fileName":"http://dummyimage.com/168x117.jpg/5fa2dd/ffffff","dateOfPhoto":"06/06/2018","description":"Re-contextualized"},{"photoID":2,"fileName":"http://dummyimage.com/189x194.jpg/5fa2dd/ffffff","dateOfPhoto":"11/21/2018","description":"website"},{"photoID":3,"fileName":"http://dummyimage.com/126x115.jpg/5fa2dd/ffffff","dateOfPhoto":"06/05/2019","description":"Centralized"}]},
{"name":"Jo Quittonden","phoneNumber":"383-411-5126","dateOfBirth":"08/11/1936","description":"coherent","Location":[{"locationID":1,"street":"84 Golf Course Place","city":"Tampa","state":"Florida"}],"photographs":[{"photoID":1,"fileName":"http://dummyimage.com/122x162.jpg/dddddd/000000","dateOfPhoto":"07/18/2018","description":"demand-driven"},{"photoID":2,"fileName":"http://dummyimage.com/153x183.jpg/ff4444/ffffff","dateOfPhoto":"09/24/2019","description":"Ergonomic"},{"photoID":3,"fileName":"http://dummyimage.com/149x219.jpg/cc0000/ffffff","dateOfPhoto":"09/01/2019","description":"even-keeled"}]},
{"name":"Jimmie Roddam","phoneNumber":"538-415-2757","dateOfBirth":"03/21/2007","description":"executive","Location":[{"locationID":1,"street":"63083 Melvin Pass","city":"Fresno","state":"California"}],"photographs":[{"photoID":1,"fileName":"http://dummyimage.com/194x127.jpg/ff4444/ffffff","dateOfPhoto":"06/29/2019","description":"exuding"},{"photoID":2,"fileName":"http://dummyimage.com/122x148.jpg/cc0000/ffffff","dateOfPhoto":"02/03/2017","description":"analyzer"},{"photoID":3,"fileName":"http://dummyimage.com/187x228.jpg/ff4444/ffffff","dateOfPhoto":"11/13/2019","description":"Distributed"}]},
{"name":"Bertrando Anersen","phoneNumber":"323-410-0041","dateOfBirth":"12/11/1988","description":"Visionary","Location":[{"locationID":1,"street":"4 School Place","city":"Olympia","state":"Washington"}],"photographs":[{"photoID":1,"fileName":"http://dummyimage.com/125x188.jpg/5fa2dd/ffffff","dateOfPhoto":"11/04/2019","description":"explicit"},{"photoID":2,"fileName":"http://dummyimage.com/193x250.jpg/ff4444/ffffff","dateOfPhoto":"09/19/2020","description":"architecture"},{"photoID":3,"fileName":"http://dummyimage.com/219x110.jpg/dddddd/000000","dateOfPhoto":"12/14/2019","description":"actuating"}]},
{"name":"Jerry Willcocks","phoneNumber":"225-335-4226","dateOfBirth":"10/04/1982","description":"optimizing","Location":[{"locationID":1,"street":"89972 Hallows Circle","city":"Saint Paul","state":"Minnesota"}],"photographs":[{"photoID":1,"fileName":"http://dummyimage.com/107x102.jpg/dddddd/000000","dateOfPhoto":"06/06/2020","description":"Organized"},{"photoID":2,"fileName":"http://dummyimage.com/234x180.jpg/5fa2dd/ffffff","dateOfPhoto":"01/30/2019","description":"disintermediate"},{"photoID":3,"fileName":"http://dummyimage.com/160x157.jpg/ff4444/ffffff","dateOfPhoto":"11/01/2015","description":"internet solution"}]},
{"name":"Mead Graveney","phoneNumber":"700-713-2448","dateOfBirth":"08/09/1951","description":"hierarchy","Location":[{"locationID":1,"street":"5 Texas Center","city":"Columbus","state":"Georgia"}],"photographs":[{"photoID":1,"fileName":"http://dummyimage.com/152x230.jpg/ff4444/ffffff","dateOfPhoto":"12/17/2015","description":"Graphical User Interface"},{"photoID":2,"fileName":"http://dummyimage.com/211x172.jpg/cc0000/ffffff","dateOfPhoto":"07/03/2020","description":"context-sensitive"},{"photoID":3,"fileName":"http://dummyimage.com/138x131.jpg/cc0000/ffffff","dateOfPhoto":"08/08/2016","description":"local area network"}]},
{"name":"Iain Caseborne","phoneNumber":"972-327-2755","dateOfBirth":"05/20/1955","description":"Intuitive","Location":[{"locationID":1,"street":"3103 Arapahoe Point","city":"Salt Lake City","state":"Utah"}],"photographs":[{"photoID":1,"fileName":"http://dummyimage.com/175x159.jpg/cc0000/ffffff","dateOfPhoto":"10/03/2016","description":"Future-proofed"},{"photoID":2,"fileName":"http://dummyimage.com/207x171.jpg/5fa2dd/ffffff","dateOfPhoto":"02/18/2020","description":"access"},{"photoID":3,"fileName":"http://dummyimage.com/195x198.jpg/5fa2dd/ffffff","dateOfPhoto":"06/14/2018","description":"paradigm"}]},
{"name":"El Cratere","phoneNumber":"457-367-0716","dateOfBirth":"01/23/1931","description":"product","Location":[{"locationID":1,"street":"096 Redwing Trail","city":"Roanoke","state":"Virginia"}],"photographs":[{"photoID":1,"fileName":"http://dummyimage.com/178x207.jpg/5fa2dd/ffffff","dateOfPhoto":"03/07/2018","description":"empowering"},{"photoID":2,"fileName":"http://dummyimage.com/161x176.jpg/cc0000/ffffff","dateOfPhoto":"08/09/2016","description":"mobile"},{"photoID":3,"fileName":"http://dummyimage.com/148x158.jpg/cc0000/ffffff","dateOfPhoto":"02/26/2016","description":"tertiary"}]},
{"name":"Christyna Parramore","phoneNumber":"490-258-9890","dateOfBirth":"03/27/1960","description":"hierarchy","Location":[{"locationID":1,"street":"9866 Katie Plaza","city":"Baltimore","state":"Maryland"}],"photographs":[{"photoID":1,"fileName":"http://dummyimage.com/214x166.jpg/ff4444/ffffff","dateOfPhoto":"09/01/2020","description":"Implemented"},{"photoID":2,"fileName":"http://dummyimage.com/246x214.jpg/5fa2dd/ffffff","dateOfPhoto":"09/15/2020","description":"function"},{"photoID":3,"fileName":"http://dummyimage.com/131x178.jpg/dddddd/000000","dateOfPhoto":"02/03/2017","description":"24 hour"}]},
{"name":"Kevon Dunning","phoneNumber":"418-183-7809","dateOfBirth":"03/28/1980","description":"application","Location":[{"locationID":1,"street":"748 Village Green Point","city":"Cleveland","state":"Ohio"}],"photographs":[{"photoID":1,"fileName":"http://dummyimage.com/245x213.jpg/dddddd/000000","dateOfPhoto":"09/19/2020","description":"attitude-oriented"},{"photoID":2,"fileName":"http://dummyimage.com/230x235.jpg/5fa2dd/ffffff","dateOfPhoto":"08/28/2018","description":"fresh-thinking"},{"photoID":3,"fileName":"http://dummyimage.com/188x110.jpg/cc0000/ffffff","dateOfPhoto":"03/26/2020","description":"human-resource"}]},
{"name":"Garland Hollyard","phoneNumber":"776-287-3265","dateOfBirth":"12/01/1995","description":"scalable","Location":[{"locationID":1,"street":"50898 5th Street","city":"Valdosta","state":"Georgia"}],"photographs":[{"photoID":1,"fileName":"http://dummyimage.com/191x156.jpg/5fa2dd/ffffff","dateOfPhoto":"08/05/2019","description":"Synergistic"},{"photoID":2,"fileName":"http://dummyimage.com/109x199.jpg/ff4444/ffffff","dateOfPhoto":"06/27/2019","description":"grid-enabled"},{"photoID":3,"fileName":"http://dummyimage.com/113x246.jpg/cc0000/ffffff","dateOfPhoto":"03/24/2017","description":"benchmark"}]},
{"name":"Gustav Ridsdole","phoneNumber":"466-222-8978","dateOfBirth":"11/06/1968","description":"methodical","Location":[{"locationID":1,"street":"28 Michigan Point","city":"Albany","state":"New York"}],"photographs":[{"photoID":1,"fileName":"http://dummyimage.com/143x228.jpg/5fa2dd/ffffff","dateOfPhoto":"08/27/2018","description":"real-time"},{"photoID":2,"fileName":"http://dummyimage.com/194x138.jpg/5fa2dd/ffffff","dateOfPhoto":"12/03/2017","description":"Visionary"},{"photoID":3,"fileName":"http://dummyimage.com/146x129.jpg/cc0000/ffffff","dateOfPhoto":"11/03/2015","description":"multi-state"}]},
{"name":"Law Shaefer","phoneNumber":"772-950-7056","dateOfBirth":"03/28/1987","description":"Exclusive","Location":[{"locationID":1,"street":"35 Jay Drive","city":"Irvine","state":"California"}],"photographs":[{"photoID":1,"fileName":"http://dummyimage.com/166x121.jpg/5fa2dd/ffffff","dateOfPhoto":"10/06/2019","description":"artificial intelligence"},{"photoID":2,"fileName":"http://dummyimage.com/131x201.jpg/5fa2dd/ffffff","dateOfPhoto":"06/09/2020","description":"hierarchy"},{"photoID":3,"fileName":"http://dummyimage.com/179x124.jpg/ff4444/ffffff","dateOfPhoto":"07/17/2020","description":"foreground"}]},
{"name":"Anjela Riddick","phoneNumber":"824-714-7886","dateOfBirth":"08/30/1938","description":"capability","Location":[{"locationID":1,"street":"32358 East Lane","city":"Kansas City","state":"Missouri"}],"photographs":[{"photoID":1,"fileName":"http://dummyimage.com/247x242.jpg/dddddd/000000","dateOfPhoto":"09/15/2018","description":"installation"},{"photoID":2,"fileName":"http://dummyimage.com/115x106.jpg/ff4444/ffffff","dateOfPhoto":"10/04/2018","description":"Versatile"},{"photoID":3,"fileName":"http://dummyimage.com/231x239.jpg/dddddd/000000","dateOfPhoto":"02/02/2019","description":"Front-line"}]},
{"name":"Julia Rylands","phoneNumber":"827-272-9931","dateOfBirth":"10/27/1941","description":"zero defect","Location":[{"locationID":1,"street":"2 Marcy Pass","city":"Albuquerque","state":"New Mexico"}],"photographs":[{"photoID":1,"fileName":"http://dummyimage.com/228x106.jpg/ff4444/ffffff","dateOfPhoto":"07/16/2017","description":"info-mediaries"},{"photoID":2,"fileName":"http://dummyimage.com/242x160.jpg/cc0000/ffffff","dateOfPhoto":"09/16/2018","description":"approach"},{"photoID":3,"fileName":"http://dummyimage.com/117x137.jpg/cc0000/ffffff","dateOfPhoto":"03/13/2017","description":"24/7"}]},
{"name":"Isador Stoffel","phoneNumber":"845-768-3620","dateOfBirth":"12/05/1992","description":"Monitored","Location":[{"locationID":1,"street":"7767 Stang Point","city":"Salt Lake City","state":"Utah"}],"photographs":[{"photoID":1,"fileName":"http://dummyimage.com/177x215.jpg/cc0000/ffffff","dateOfPhoto":"01/15/2017","description":"national"},{"photoID":2,"fileName":"http://dummyimage.com/193x151.jpg/dddddd/000000","dateOfPhoto":"12/09/2016","description":"Stand-alone"},{"photoID":3,"fileName":"http://dummyimage.com/137x156.jpg/5fa2dd/ffffff","dateOfPhoto":"07/07/2017","description":"Centralized"}]},
{"name":"Ricky Trahar","phoneNumber":"278-838-3280","dateOfBirth":"05/01/1954","description":"mobile","Location":[{"locationID":1,"street":"37569 Pankratz Street","city":"Lancaster","state":"Pennsylvania"}],"photographs":[{"photoID":1,"fileName":"http://dummyimage.com/180x104.jpg/5fa2dd/ffffff","dateOfPhoto":"11/14/2016","description":"Networked"},{"photoID":2,"fileName":"http://dummyimage.com/243x237.jpg/dddddd/000000","dateOfPhoto":"05/10/2020","description":"background"},{"photoID":3,"fileName":"http://dummyimage.com/155x130.jpg/cc0000/ffffff","dateOfPhoto":"10/15/2018","description":"Distributed"}]},
{"name":"Elissa Barnwell","phoneNumber":"567-187-3062","dateOfBirth":"11/24/2000","description":"firmware","Location":[{"locationID":1,"street":"622 Linden Alley","city":"Springfield","state":"Massachusetts"}],"photographs":[{"photoID":1,"fileName":"http://dummyimage.com/141x118.jpg/ff4444/ffffff","dateOfPhoto":"04/20/2016","description":"Multi-channelled"},{"photoID":2,"fileName":"http://dummyimage.com/139x160.jpg/dddddd/000000","dateOfPhoto":"07/21/2019","description":"hybrid"},{"photoID":3,"fileName":"http://dummyimage.com/208x213.jpg/5fa2dd/ffffff","dateOfPhoto":"06/05/2016","description":"emulation"}]},
{"name":"Judon Gormally","phoneNumber":"423-742-3425","dateOfBirth":"12/23/2011","description":"Synergized","Location":[{"locationID":1,"street":"858 Doe Crossing Alley","city":"Springfield","state":"Massachusetts"}],"photographs":[{"photoID":1,"fileName":"http://dummyimage.com/197x156.jpg/cc0000/ffffff","dateOfPhoto":"07/18/2016","description":"frame"},{"photoID":2,"fileName":"http://dummyimage.com/110x223.jpg/dddddd/000000","dateOfPhoto":"03/06/2017","description":"complexity"},{"photoID":3,"fileName":"http://dummyimage.com/180x187.jpg/ff4444/ffffff","dateOfPhoto":"04/02/2017","description":"Virtual"}]},
{"name":"Marlon Kerfut","phoneNumber":"955-739-1804","dateOfBirth":"06/17/1945","description":"Distributed","Location":[{"locationID":1,"street":"8121 Red Cloud Way","city":"Omaha","state":"Nebraska"}],"photographs":[{"photoID":1,"fileName":"http://dummyimage.com/151x125.jpg/5fa2dd/ffffff","dateOfPhoto":"01/08/2016","description":"complexity"},{"photoID":2,"fileName":"http://dummyimage.com/148x142.jpg/5fa2dd/ffffff","dateOfPhoto":"03/28/2020","description":"Object-based"},{"photoID":3,"fileName":"http://dummyimage.com/199x213.jpg/5fa2dd/ffffff","dateOfPhoto":"09/14/2020","description":"capability"}]},
{"name":"Gamaliel Ullett","phoneNumber":"675-340-6347","dateOfBirth":"08/16/2001","description":"multi-tasking","Location":[{"locationID":1,"street":"713 Johnson Junction","city":"Louisville","state":"Kentucky"}],"photographs":[{"photoID":1,"fileName":"http://dummyimage.com/154x157.jpg/cc0000/ffffff","dateOfPhoto":"07/09/2020","description":"attitude"},{"photoID":2,"fileName":"http://dummyimage.com/104x182.jpg/cc0000/ffffff","dateOfPhoto":"08/10/2016","description":"Polarised"},{"photoID":3,"fileName":"http://dummyimage.com/239x226.jpg/dddddd/000000","dateOfPhoto":"06/01/2017","description":"Devolved"}]},
{"name":"Giselbert Quigg","phoneNumber":"443-758-9003","dateOfBirth":"10/06/1973","description":"demand-driven","Location":[{"locationID":1,"street":"71 Vahlen Road","city":"Brooklyn","state":"New York"}],"photographs":[{"photoID":1,"fileName":"http://dummyimage.com/143x238.jpg/dddddd/000000","dateOfPhoto":"09/23/2019","description":"Cross-platform"},{"photoID":2,"fileName":"http://dummyimage.com/156x100.jpg/ff4444/ffffff","dateOfPhoto":"11/11/2017","description":"Face to face"},{"photoID":3,"fileName":"http://dummyimage.com/152x185.jpg/ff4444/ffffff","dateOfPhoto":"06/02/2020","description":"Inverse"}]},
{"name":"Bill Jagels","phoneNumber":"698-808-0307","dateOfBirth":"01/09/1983","description":"Enhanced","Location":[{"locationID":1,"street":"1 Autumn Leaf Pass","city":"Knoxville","state":"Tennessee"}],"photographs":[{"photoID":1,"fileName":"http://dummyimage.com/242x145.jpg/dddddd/000000","dateOfPhoto":"09/03/2016","description":"Synergized"},{"photoID":2,"fileName":"http://dummyimage.com/198x188.jpg/dddddd/000000","dateOfPhoto":"11/03/2018","description":"4th generation"},{"photoID":3,"fileName":"http://dummyimage.com/114x227.jpg/5fa2dd/ffffff","dateOfPhoto":"06/30/2018","description":"time-frame"}]},
{"name":"Hastings Barthelemy","phoneNumber":"684-292-0293","dateOfBirth":"02/05/1991","description":"Assimilated","Location":[{"locationID":1,"street":"14360 Sundown Crossing","city":"Palm Bay","state":"Florida"}],"photographs":[{"photoID":1,"fileName":"http://dummyimage.com/138x218.jpg/5fa2dd/ffffff","dateOfPhoto":"01/20/2017","description":"Customer-focused"},{"photoID":2,"fileName":"http://dummyimage.com/146x140.jpg/ff4444/ffffff","dateOfPhoto":"10/30/2017","description":"Implemented"},{"photoID":3,"fileName":"http://dummyimage.com/113x171.jpg/5fa2dd/ffffff","dateOfPhoto":"06/28/2020","description":"concept"}]},
{"name":"Flora Grob","phoneNumber":"407-825-2241","dateOfBirth":"08/06/1938","description":"local area network","Location":[{"locationID":1,"street":"151 Manley Hill","city":"Tyler","state":"Texas"}],"photographs":[{"photoID":1,"fileName":"http://dummyimage.com/213x174.jpg/ff4444/ffffff","dateOfPhoto":"03/28/2019","description":"clear-thinking"},{"photoID":2,"fileName":"http://dummyimage.com/181x101.jpg/5fa2dd/ffffff","dateOfPhoto":"12/17/2016","description":"Adaptive"},{"photoID":3,"fileName":"http://dummyimage.com/222x117.jpg/5fa2dd/ffffff","dateOfPhoto":"08/29/2016","description":"Pre-emptive"}]},
{"name":"Raeann Ruusa","phoneNumber":"991-683-7780","dateOfBirth":"01/18/1968","description":"Multi-layered","Location":[{"locationID":1,"street":"1183 Charing Cross Court","city":"Lynn","state":"Massachusetts"}],"photographs":[{"photoID":1,"fileName":"http://dummyimage.com/164x198.jpg/dddddd/000000","dateOfPhoto":"05/19/2017","description":"tertiary"},{"photoID":2,"fileName":"http://dummyimage.com/132x200.jpg/5fa2dd/ffffff","dateOfPhoto":"06/22/2019","description":"even-keeled"},{"photoID":3,"fileName":"http://dummyimage.com/226x196.jpg/dddddd/000000","dateOfPhoto":"09/09/2016","description":"client-driven"}]},
{"name":"Saunder Pellissier","phoneNumber":"422-832-2872","dateOfBirth":"12/12/1964","description":"heuristic","Location":[{"locationID":1,"street":"947 Hanover Center","city":"Dallas","state":"Texas"}],"photographs":[{"photoID":1,"fileName":"http://dummyimage.com/229x233.jpg/ff4444/ffffff","dateOfPhoto":"04/18/2020","description":"Advanced"},{"photoID":2,"fileName":"http://dummyimage.com/113x117.jpg/5fa2dd/ffffff","dateOfPhoto":"06/19/2020","description":"background"},{"photoID":3,"fileName":"http://dummyimage.com/118x239.jpg/cc0000/ffffff","dateOfPhoto":"11/11/2018","description":"matrix"}]},
{"name":"Hew Dinjes","phoneNumber":"851-328-5892","dateOfBirth":"09/27/1974","description":"user-facing","Location":[{"locationID":1,"street":"136 Johnson Junction","city":"Seattle","state":"Washington"}],"photographs":[{"photoID":1,"fileName":"http://dummyimage.com/109x124.jpg/5fa2dd/ffffff","dateOfPhoto":"03/28/2019","description":"alliance"},{"photoID":2,"fileName":"http://dummyimage.com/196x140.jpg/dddddd/000000","dateOfPhoto":"04/07/2018","description":"Multi-lateral"},{"photoID":3,"fileName":"http://dummyimage.com/232x216.jpg/ff4444/ffffff","dateOfPhoto":"12/12/2018","description":"Optimized"}]},
{"name":"Pammi Robillart","phoneNumber":"911-423-0318","dateOfBirth":"06/13/1956","description":"Public-key","Location":[{"locationID":1,"street":"251 Roth Road","city":"Punta Gorda","state":"Florida"}],"photographs":[{"photoID":1,"fileName":"http://dummyimage.com/168x189.jpg/5fa2dd/ffffff","dateOfPhoto":"10/22/2019","description":"Sharable"},{"photoID":2,"fileName":"http://dummyimage.com/161x234.jpg/dddddd/000000","dateOfPhoto":"12/27/2016","description":"Expanded"},{"photoID":3,"fileName":"http://dummyimage.com/186x156.jpg/cc0000/ffffff","dateOfPhoto":"09/28/2017","description":"fault-tolerant"}]},
{"name":"Rudolfo Sherme","phoneNumber":"661-100-3493","dateOfBirth":"04/02/1986","description":"logistical","Location":[{"locationID":1,"street":"1975 John Wall Center","city":"Seattle","state":"Washington"}],"photographs":[{"photoID":1,"fileName":"http://dummyimage.com/103x173.jpg/cc0000/ffffff","dateOfPhoto":"11/03/2017","description":"local area network"},{"photoID":2,"fileName":"http://dummyimage.com/159x142.jpg/cc0000/ffffff","dateOfPhoto":"10/14/2017","description":"Extended"},{"photoID":3,"fileName":"http://dummyimage.com/242x140.jpg/dddddd/000000","dateOfPhoto":"09/15/2020","description":"empowering"}]},
{"name":"Nat Pashe","phoneNumber":"806-210-8338","dateOfBirth":"06/09/1946","description":"portal","Location":[{"locationID":1,"street":"4230 Sunnyside Avenue","city":"Miami","state":"Florida"}],"photographs":[{"photoID":1,"fileName":"http://dummyimage.com/154x151.jpg/cc0000/ffffff","dateOfPhoto":"02/01/2018","description":"service-desk"},{"photoID":2,"fileName":"http://dummyimage.com/101x148.jpg/5fa2dd/ffffff","dateOfPhoto":"07/06/2019","description":"Face to face"},{"photoID":3,"fileName":"http://dummyimage.com/208x203.jpg/dddddd/000000","dateOfPhoto":"08/13/2016","description":"Organized"}]},
{"name":"Ethelbert Ferras","phoneNumber":"751-594-0711","dateOfBirth":"06/03/1967","description":"Synergistic","Location":[{"locationID":1,"street":"397 Del Sol Avenue","city":"Athens","state":"Georgia"}],"photographs":[{"photoID":1,"fileName":"http://dummyimage.com/210x201.jpg/cc0000/ffffff","dateOfPhoto":"09/09/2020","description":"De-engineered"},{"photoID":2,"fileName":"http://dummyimage.com/191x116.jpg/ff4444/ffffff","dateOfPhoto":"04/13/2018","description":"internet solution"},{"photoID":3,"fileName":"http://dummyimage.com/137x234.jpg/ff4444/ffffff","dateOfPhoto":"07/22/2017","description":"analyzing"}]},
{"name":"Barbara-anne Tomkies","phoneNumber":"590-358-2048","dateOfBirth":"12/13/2014","description":"synergy","Location":[{"locationID":1,"street":"9044 Fremont Parkway","city":"Houston","state":"Texas"}],"photographs":[{"photoID":1,"fileName":"http://dummyimage.com/201x116.jpg/dddddd/000000","dateOfPhoto":"11/01/2015","description":"logistical"},{"photoID":2,"fileName":"http://dummyimage.com/212x233.jpg/dddddd/000000","dateOfPhoto":"02/22/2019","description":"client-driven"},{"photoID":3,"fileName":"http://dummyimage.com/221x238.jpg/dddddd/000000","dateOfPhoto":"05/28/2019","description":"policy"}]},
{"name":"Sibeal Haggerwood","phoneNumber":"284-445-3794","dateOfBirth":"12/19/1954","description":"contextually-based","Location":[{"locationID":1,"street":"916 Waubesa Center","city":"New York City","state":"New York"}],"photographs":[{"photoID":1,"fileName":"http://dummyimage.com/158x245.jpg/ff4444/ffffff","dateOfPhoto":"10/12/2018","description":"knowledge base"},{"photoID":2,"fileName":"http://dummyimage.com/191x176.jpg/ff4444/ffffff","dateOfPhoto":"03/10/2016","description":"Focused"},{"photoID":3,"fileName":"http://dummyimage.com/239x163.jpg/ff4444/ffffff","dateOfPhoto":"09/11/2019","description":"leading edge"}]},
{"name":"Pete Andino","phoneNumber":"924-920-3787","dateOfBirth":"03/28/2012","description":"Future-proofed","Location":[{"locationID":1,"street":"1 Schmedeman Trail","city":"Houston","state":"Texas"}],"photographs":[{"photoID":1,"fileName":"http://dummyimage.com/121x236.jpg/dddddd/000000","dateOfPhoto":"07/30/2020","description":"projection"},{"photoID":2,"fileName":"http://dummyimage.com/178x155.jpg/dddddd/000000","dateOfPhoto":"01/03/2016","description":"didactic"},{"photoID":3,"fileName":"http://dummyimage.com/187x163.jpg/dddddd/000000","dateOfPhoto":"03/13/2017","description":"Intuitive"}]},
{"name":"Jacklyn Motton","phoneNumber":"233-803-0279","dateOfBirth":"12/31/1964","description":"alliance","Location":[{"locationID":1,"street":"05551 Petterle Park","city":"Corpus Christi","state":"Texas"}],"photographs":[{"photoID":1,"fileName":"http://dummyimage.com/211x121.jpg/ff4444/ffffff","dateOfPhoto":"11/13/2015","description":"Graphic Interface"},{"photoID":2,"fileName":"http://dummyimage.com/212x179.jpg/5fa2dd/ffffff","dateOfPhoto":"09/04/2018","description":"zero administration"},{"photoID":3,"fileName":"http://dummyimage.com/185x132.jpg/ff4444/ffffff","dateOfPhoto":"01/08/2020","description":"Integrated"}]},
{"name":"Adolf Wanderschek","phoneNumber":"743-980-2879","dateOfBirth":"03/21/1979","description":"parallelism","Location":[{"locationID":1,"street":"0447 Meadow Valley Hill","city":"Des Moines","state":"Iowa"}],"photographs":[{"photoID":1,"fileName":"http://dummyimage.com/236x156.jpg/cc0000/ffffff","dateOfPhoto":"10/06/2017","description":"De-engineered"},{"photoID":2,"fileName":"http://dummyimage.com/218x132.jpg/5fa2dd/ffffff","dateOfPhoto":"01/13/2018","description":"systematic"},{"photoID":3,"fileName":"http://dummyimage.com/232x104.jpg/dddddd/000000","dateOfPhoto":"07/20/2020","description":"interactive"}]},
{"name":"Foss Hunnywell","phoneNumber":"511-265-6831","dateOfBirth":"12/11/1987","description":"Organized","Location":[{"locationID":1,"street":"73655 Little Fleur Street","city":"Atlanta","state":"Georgia"}],"photographs":[{"photoID":1,"fileName":"http://dummyimage.com/182x186.jpg/ff4444/ffffff","dateOfPhoto":"03/04/2017","description":"5th generation"},{"photoID":2,"fileName":"http://dummyimage.com/146x237.jpg/dddddd/000000","dateOfPhoto":"01/17/2020","description":"regional"},{"photoID":3,"fileName":"http://dummyimage.com/210x180.jpg/cc0000/ffffff","dateOfPhoto":"05/02/2016","description":"Mandatory"}]},
{"name":"Alfonso Wrist","phoneNumber":"406-174-0814","dateOfBirth":"08/22/1938","description":"Universal","Location":[{"locationID":1,"street":"90 Lotheville Court","city":"Cleveland","state":"Ohio"}],"photographs":[{"photoID":1,"fileName":"http://dummyimage.com/237x207.jpg/cc0000/ffffff","dateOfPhoto":"06/17/2017","description":"client-driven"},{"photoID":2,"fileName":"http://dummyimage.com/151x244.jpg/5fa2dd/ffffff","dateOfPhoto":"03/13/2019","description":"needs-based"},{"photoID":3,"fileName":"http://dummyimage.com/204x195.jpg/ff4444/ffffff","dateOfPhoto":"09/13/2019","description":"process improvement"}]},
{"name":"Tresa Farrimond","phoneNumber":"346-389-9760","dateOfBirth":"12/08/2009","description":"Focused","Location":[{"locationID":1,"street":"46454 Independence Way","city":"Youngstown","state":"Ohio"}],"photographs":[{"photoID":1,"fileName":"http://dummyimage.com/156x182.jpg/cc0000/ffffff","dateOfPhoto":"07/11/2018","description":"customer loyalty"},{"photoID":2,"fileName":"http://dummyimage.com/215x171.jpg/ff4444/ffffff","dateOfPhoto":"01/29/2018","description":"uniform"},{"photoID":3,"fileName":"http://dummyimage.com/249x117.jpg/dddddd/000000","dateOfPhoto":"05/17/2020","description":"Profound"}]},
{"name":"Vilhelmina Pelham","phoneNumber":"509-958-8708","dateOfBirth":"05/30/1969","description":"Re-engineered","Location":[{"locationID":1,"street":"1 Alpine Plaza","city":"Rochester","state":"New York"}],"photographs":[{"photoID":1,"fileName":"http://dummyimage.com/214x187.jpg/5fa2dd/ffffff","dateOfPhoto":"02/27/2016","description":"incremental"},{"photoID":2,"fileName":"http://dummyimage.com/111x155.jpg/ff4444/ffffff","dateOfPhoto":"12/30/2019","description":"projection"},{"photoID":3,"fileName":"http://dummyimage.com/210x159.jpg/cc0000/ffffff","dateOfPhoto":"07/18/2020","description":"24 hour"}]},
{"name":"Esma Felgate","phoneNumber":"748-437-4948","dateOfBirth":"08/08/1961","description":"encompassing","Location":[{"locationID":1,"street":"7 Everett Alley","city":"Jacksonville","state":"Florida"}],"photographs":[{"photoID":1,"fileName":"http://dummyimage.com/153x145.jpg/cc0000/ffffff","dateOfPhoto":"01/21/2020","description":"Diverse"},{"photoID":2,"fileName":"http://dummyimage.com/106x132.jpg/cc0000/ffffff","dateOfPhoto":"08/13/2016","description":"asynchronous"},{"photoID":3,"fileName":"http://dummyimage.com/103x193.jpg/5fa2dd/ffffff","dateOfPhoto":"01/07/2018","description":"intangible"}]},
{"name":"Cornelia Tampen","phoneNumber":"384-819-3622","dateOfBirth":"12/29/1965","description":"portal","Location":[{"locationID":1,"street":"5 Northfield Hill","city":"Fresno","state":"California"}],"photographs":[{"photoID":1,"fileName":"http://dummyimage.com/117x246.jpg/cc0000/ffffff","dateOfPhoto":"03/04/2017","description":"adapter"},{"photoID":2,"fileName":"http://dummyimage.com/238x189.jpg/cc0000/ffffff","dateOfPhoto":"09/22/2019","description":"Multi-channelled"},{"photoID":3,"fileName":"http://dummyimage.com/117x189.jpg/5fa2dd/ffffff","dateOfPhoto":"06/18/2020","description":"Self-enabling"}]},
{"name":"Homere Dabinett","phoneNumber":"916-507-7187","dateOfBirth":"01/22/1969","description":"Versatile","Location":[{"locationID":1,"street":"19 Meadow Valley Lane","city":"Phoenix","state":"Arizona"}],"photographs":[{"photoID":1,"fileName":"http://dummyimage.com/135x196.jpg/cc0000/ffffff","dateOfPhoto":"02/01/2020","description":"core"},{"photoID":2,"fileName":"http://dummyimage.com/197x143.jpg/ff4444/ffffff","dateOfPhoto":"06/04/2019","description":"utilisation"},{"photoID":3,"fileName":"http://dummyimage.com/194x178.jpg/cc0000/ffffff","dateOfPhoto":"05/28/2017","description":"Versatile"}]},
{"name":"Averil Gandrich","phoneNumber":"475-734-1395","dateOfBirth":"08/20/1948","description":"capability","Location":[{"locationID":1,"street":"472 Express Trail","city":"Alexandria","state":"Virginia"}],"photographs":[{"photoID":1,"fileName":"http://dummyimage.com/195x129.jpg/dddddd/000000","dateOfPhoto":"09/04/2019","description":"Persistent"},{"photoID":2,"fileName":"http://dummyimage.com/170x129.jpg/dddddd/000000","dateOfPhoto":"02/02/2017","description":"systemic"},{"photoID":3,"fileName":"http://dummyimage.com/189x195.jpg/5fa2dd/ffffff","dateOfPhoto":"01/08/2018","description":"toolset"}]},
{"name":"Vale Warcup","phoneNumber":"863-109-8600","dateOfBirth":"11/10/1988","description":"conglomeration","Location":[{"locationID":1,"street":"90601 Thackeray Street","city":"Whittier","state":"California"}],"photographs":[{"photoID":1,"fileName":"http://dummyimage.com/208x177.jpg/ff4444/ffffff","dateOfPhoto":"11/24/2016","description":"contextually-based"},{"photoID":2,"fileName":"http://dummyimage.com/143x138.jpg/5fa2dd/ffffff","dateOfPhoto":"07/22/2020","description":"Persistent"},{"photoID":3,"fileName":"http://dummyimage.com/135x158.jpg/dddddd/000000","dateOfPhoto":"04/07/2019","description":"stable"}]}]