[{"name":"Pacorro Pennicard","phoneNumber":"314-797-5915","dateOfBirth":"02/08/1996","photographs":[{"photoID":1,"fileName":"http://dummyimage.com/222x150.bmp/cc0000/ffffff","dateOfPhoto":"02/14/2017","description":"database"},{"photoID":2,"fileName":"http://dummyimage.com/227x159.jpg/cc0000/ffffff","dateOfPhoto":"08/08/2016","description":"Open-source"}],"Location":[{"locationID":1,"street":"74 Ridgeway Road","city":"Cincinnati","state":"Ohio"}],"description":"Phased"},
{"name":"Virginie Bispham","phoneNumber":"358-267-0900","dateOfBirth":"06/23/1979","photographs":[{"photoID":1,"fileName":"http://dummyimage.com/176x215.png/5fa2dd/ffffff","dateOfPhoto":"10/01/2017","description":"Customizable"},{"photoID":2,"fileName":"http://dummyimage.com/154x181.png/dddddd/000000","dateOfPhoto":"07/10/2016","description":"Digitized"}],"Location":[{"locationID":1,"street":"84 Springs Parkway","city":"Garland","state":"Texas"}],"description":"interface"},
{"name":"Cal Streeter","phoneNumber":"318-198-8532","dateOfBirth":"04/08/1985","photographs":[{"photoID":1,"fileName":"http://dummyimage.com/129x135.png/ff4444/ffffff","dateOfPhoto":"04/15/2017","description":"Enhanced"},{"photoID":2,"fileName":"http://dummyimage.com/153x200.png/ff4444/ffffff","dateOfPhoto":"12/13/2015","description":"systematic"}],"Location":[{"locationID":1,"street":"21 Crownhardt Court","city":"Los Angeles","state":"California"}],"description":"utilisation"},
{"name":"Kimble Meggison","phoneNumber":"303-526-8662","dateOfBirth":"12/14/1958","photographs":[{"photoID":1,"fileName":"http://dummyimage.com/233x195.png/ff4444/ffffff","dateOfPhoto":"01/30/2016","description":"Innovative"},{"photoID":2,"fileName":"http://dummyimage.com/103x152.png/5fa2dd/ffffff","dateOfPhoto":"03/27/2018","description":"application"}],"Location":[{"locationID":1,"street":"76843 Maple Wood Point","city":"Cumming","state":"Georgia"}],"description":"benchmark"},
{"name":"Ashlen Whysall","phoneNumber":"153-643-9679","dateOfBirth":"10/17/1990","photographs":[{"photoID":1,"fileName":"http://dummyimage.com/212x154.jpg/ff4444/ffffff","dateOfPhoto":"11/15/2015","description":"encoding"},{"photoID":2,"fileName":"http://dummyimage.com/248x151.bmp/ff4444/ffffff","dateOfPhoto":"07/15/2016","description":"attitude-oriented"}],"Location":[{"locationID":1,"street":"378 Thierer Lane","city":"Cheyenne","state":"Wyoming"}],"description":"portal"},
{"name":"Nevil Larcher","phoneNumber":"445-744-1457","dateOfBirth":"02/04/2016","photographs":[{"photoID":1,"fileName":"http://dummyimage.com/233x241.jpg/5fa2dd/ffffff","dateOfPhoto":"01/19/2017","description":"Persistent"},{"photoID":2,"fileName":"http://dummyimage.com/243x126.png/5fa2dd/ffffff","dateOfPhoto":"04/18/2016","description":"Ergonomic"}],"Location":[{"locationID":1,"street":"05 Ramsey Point","city":"Dallas","state":"Texas"}],"description":"zero administration"},
{"name":"Bernette Bedingfield","phoneNumber":"756-233-3520","dateOfBirth":"12/27/1968","photographs":[{"photoID":1,"fileName":"http://dummyimage.com/111x183.png/ff4444/ffffff","dateOfPhoto":"04/05/2016","description":"Re-engineered"},{"photoID":2,"fileName":"http://dummyimage.com/205x248.jpg/ff4444/ffffff","dateOfPhoto":"09/03/2016","description":"migration"}],"Location":[{"locationID":1,"street":"93 Lien Center","city":"Mobile","state":"Alabama"}],"description":"portal"},
{"name":"Jeanelle McMichan","phoneNumber":"554-460-7363","dateOfBirth":"08/28/1953","photographs":[{"photoID":1,"fileName":"http://dummyimage.com/237x116.png/ff4444/ffffff","dateOfPhoto":"11/10/2017","description":"synergy"},{"photoID":2,"fileName":"http://dummyimage.com/148x240.bmp/cc0000/ffffff","dateOfPhoto":"10/11/2018","description":"Virtual"}],"Location":[{"locationID":1,"street":"82375 Namekagon Point","city":"El Paso","state":"Texas"}],"description":"explicit"},
{"name":"Ben Brosch","phoneNumber":"951-125-8226","dateOfBirth":"03/17/1964","photographs":[{"photoID":1,"fileName":"http://dummyimage.com/212x118.bmp/cc0000/ffffff","dateOfPhoto":"03/23/2018","description":"infrastructure"},{"photoID":2,"fileName":"http://dummyimage.com/190x219.png/cc0000/ffffff","dateOfPhoto":"12/29/2017","description":"local"}],"Location":[{"locationID":1,"street":"45255 Jay Drive","city":"Wilmington","state":"Delaware"}],"description":"standardization"},
{"name":"Gregory Lates","phoneNumber":"245-603-9649","dateOfBirth":"07/25/2013","photographs":[{"photoID":1,"fileName":"http://dummyimage.com/207x204.jpg/5fa2dd/ffffff","dateOfPhoto":"02/03/2017","description":"forecast"},{"photoID":2,"fileName":"http://dummyimage.com/132x141.jpg/ff4444/ffffff","dateOfPhoto":"12/24/2016","description":"time-frame"}],"Location":[{"locationID":1,"street":"6071 Ramsey Hill","city":"Tampa","state":"Florida"}],"description":"systemic"},
{"name":"Lewiss Driussi","phoneNumber":"675-288-1299","dateOfBirth":"06/23/1998","photographs":[{"photoID":1,"fileName":"http://dummyimage.com/242x111.jpg/dddddd/000000","dateOfPhoto":"09/12/2017","description":"support"},{"photoID":2,"fileName":"http://dummyimage.com/111x208.png/cc0000/ffffff","dateOfPhoto":"10/05/2016","description":"project"}],"Location":[{"locationID":1,"street":"76480 Beilfuss Place","city":"Spartanburg","state":"South Carolina"}],"description":"zero defect"},
{"name":"Raye Cominoli","phoneNumber":"975-557-7395","dateOfBirth":"09/29/1950","photographs":[{"photoID":1,"fileName":"http://dummyimage.com/247x202.bmp/5fa2dd/ffffff","dateOfPhoto":"03/25/2017","description":"protocol"},{"photoID":2,"fileName":"http://dummyimage.com/126x129.png/ff4444/ffffff","dateOfPhoto":"01/27/2017","description":"scalable"}],"Location":[{"locationID":1,"street":"331 Birchwood Center","city":"Wilmington","state":"Delaware"}],"description":"bi-directional"},
{"name":"Thibaut Bengochea","phoneNumber":"486-808-4402","dateOfBirth":"10/26/2017","photographs":[{"photoID":1,"fileName":"http://dummyimage.com/206x213.png/cc0000/ffffff","dateOfPhoto":"12/04/2015","description":"Business-focused"},{"photoID":2,"fileName":"http://dummyimage.com/122x122.jpg/ff4444/ffffff","dateOfPhoto":"03/14/2017","description":"database"}],"Location":[{"locationID":1,"street":"1862 Lyons Trail","city":"Miami","state":"Florida"}],"description":"Fully-configurable"},
{"name":"Domenic Coulston","phoneNumber":"789-423-7043","dateOfBirth":"12/28/2016","photographs":[{"photoID":1,"fileName":"http://dummyimage.com/204x178.png/dddddd/000000","dateOfPhoto":"07/08/2018","description":"adapter"},{"photoID":2,"fileName":"http://dummyimage.com/205x173.bmp/dddddd/000000","dateOfPhoto":"08/20/2018","description":"Vision-oriented"}],"Location":[{"locationID":1,"street":"16 Anzinger Street","city":"New York City","state":"New York"}],"description":"Profound"},
{"name":"Harland Bigby","phoneNumber":"203-927-1819","dateOfBirth":"04/17/1984","photographs":[{"photoID":1,"fileName":"http://dummyimage.com/186x233.jpg/cc0000/ffffff","dateOfPhoto":"11/14/2016","description":"conglomeration"},{"photoID":2,"fileName":"http://dummyimage.com/119x133.jpg/dddddd/000000","dateOfPhoto":"12/26/2016","description":"Pre-emptive"}],"Location":[{"locationID":1,"street":"00 Atwood Terrace","city":"Las Vegas","state":"Nevada"}],"description":"Cloned"},
{"name":"Gene Lavallie","phoneNumber":"799-551-8385","dateOfBirth":"02/08/1949","photographs":[{"photoID":1,"fileName":"http://dummyimage.com/215x130.bmp/cc0000/ffffff","dateOfPhoto":"03/12/2016","description":"open architecture"},{"photoID":2,"fileName":"http://dummyimage.com/174x137.jpg/cc0000/ffffff","dateOfPhoto":"02/19/2017","description":"homogeneous"}],"Location":[{"locationID":1,"street":"705 Harbort Pass","city":"Merrifield","state":"Virginia"}],"description":"Vision-oriented"},
{"name":"Terrill Baudic","phoneNumber":"811-766-2786","dateOfBirth":"01/18/2008","photographs":[{"photoID":1,"fileName":"http://dummyimage.com/154x198.jpg/dddddd/000000","dateOfPhoto":"11/09/2015","description":"asymmetric"},{"photoID":2,"fileName":"http://dummyimage.com/124x157.png/cc0000/ffffff","dateOfPhoto":"11/09/2015","description":"responsive"}],"Location":[{"locationID":1,"street":"16109 Monterey Junction","city":"Manchester","state":"New Hampshire"}],"description":"implementation"},
{"name":"Merrick McKitterick","phoneNumber":"977-590-1418","dateOfBirth":"12/23/1995","photographs":[{"photoID":1,"fileName":"http://dummyimage.com/219x157.bmp/cc0000/ffffff","dateOfPhoto":"01/25/2017","description":"eco-centric"},{"photoID":2,"fileName":"http://dummyimage.com/134x179.bmp/dddddd/000000","dateOfPhoto":"07/24/2017","description":"Self-enabling"}],"Location":[{"locationID":1,"street":"5 Monica Drive","city":"Brooklyn","state":"New York"}],"description":"Expanded"},
{"name":"Lonna Duchatel","phoneNumber":"783-229-1593","dateOfBirth":"06/05/1938","photographs":[{"photoID":1,"fileName":"http://dummyimage.com/221x193.png/ff4444/ffffff","dateOfPhoto":"02/14/2018","description":"array"},{"photoID":2,"fileName":"http://dummyimage.com/223x106.png/dddddd/000000","dateOfPhoto":"02/28/2016","description":"local area network"}],"Location":[{"locationID":1,"street":"7501 Merry Plaza","city":"Montgomery","state":"Alabama"}],"description":"Mandatory"},
{"name":"Kaspar Whyborn","phoneNumber":"429-732-4741","dateOfBirth":"03/20/1955","photographs":[{"photoID":1,"fileName":"http://dummyimage.com/202x232.bmp/5fa2dd/ffffff","dateOfPhoto":"10/19/2017","description":"protocol"},{"photoID":2,"fileName":"http://dummyimage.com/114x183.bmp/dddddd/000000","dateOfPhoto":"12/28/2015","description":"Profound"}],"Location":[{"locationID":1,"street":"559 Jenna Alley","city":"Modesto","state":"California"}],"description":"Integrated"},
{"name":"Sergent Pavitt","phoneNumber":"501-786-0256","dateOfBirth":"09/14/1955","photographs":[{"photoID":1,"fileName":"http://dummyimage.com/110x182.jpg/dddddd/000000","dateOfPhoto":"07/31/2018","description":"pricing structure"},{"photoID":2,"fileName":"http://dummyimage.com/244x198.jpg/dddddd/000000","dateOfPhoto":"05/18/2018","description":"Reverse-engineered"}],"Location":[{"locationID":1,"street":"859 David Pass","city":"Fresno","state":"California"}],"description":"model"},
{"name":"Melisandra Cotton","phoneNumber":"880-989-0592","dateOfBirth":"02/07/2005","photographs":[{"photoID":1,"fileName":"http://dummyimage.com/196x197.bmp/dddddd/000000","dateOfPhoto":"10/03/2016","description":"time-frame"},{"photoID":2,"fileName":"http://dummyimage.com/161x201.jpg/dddddd/000000","dateOfPhoto":"05/26/2016","description":"reciprocal"}],"Location":[{"locationID":1,"street":"2 Steensland Alley","city":"Washington","state":"District of Columbia"}],"description":"Phased"},
{"name":"Bastien Sarten","phoneNumber":"364-480-1228","dateOfBirth":"06/06/1984","photographs":[{"photoID":1,"fileName":"http://dummyimage.com/200x235.png/cc0000/ffffff","dateOfPhoto":"06/21/2016","description":"transitional"},{"photoID":2,"fileName":"http://dummyimage.com/154x162.png/5fa2dd/ffffff","dateOfPhoto":"10/19/2018","description":"maximized"}],"Location":[{"locationID":1,"street":"48 Portage Circle","city":"Portland","state":"Oregon"}],"description":"national"},
{"name":"Cyndia Orsay","phoneNumber":"734-418-6947","dateOfBirth":"10/07/1965","photographs":[{"photoID":1,"fileName":"http://dummyimage.com/249x109.jpg/dddddd/000000","dateOfPhoto":"08/05/2016","description":"human-resource"},{"photoID":2,"fileName":"http://dummyimage.com/127x219.bmp/5fa2dd/ffffff","dateOfPhoto":"09/25/2017","description":"secured line"}],"Location":[{"locationID":1,"street":"6303 Mandrake Court","city":"Baton Rouge","state":"Louisiana"}],"description":"heuristic"},
{"name":"Flossie Morcombe","phoneNumber":"217-613-8523","dateOfBirth":"07/26/2013","photographs":[{"photoID":1,"fileName":"http://dummyimage.com/218x191.jpg/5fa2dd/ffffff","dateOfPhoto":"08/04/2018","description":"function"},{"photoID":2,"fileName":"http://dummyimage.com/192x214.png/ff4444/ffffff","dateOfPhoto":"04/07/2018","description":"Diverse"}],"Location":[{"locationID":1,"street":"59 Acker Lane","city":"Memphis","state":"Tennessee"}],"description":"Advanced"},
{"name":"Fonz Hardern","phoneNumber":"395-338-1605","dateOfBirth":"01/06/1939","photographs":[{"photoID":1,"fileName":"http://dummyimage.com/114x106.jpg/dddddd/000000","dateOfPhoto":"10/26/2017","description":"Digitized"},{"photoID":2,"fileName":"http://dummyimage.com/180x121.bmp/5fa2dd/ffffff","dateOfPhoto":"09/14/2017","description":"archive"}],"Location":[{"locationID":1,"street":"1005 Pawling Trail","city":"Chicago","state":"Illinois"}],"description":"Robust"},
{"name":"Elora Dobble","phoneNumber":"881-750-5727","dateOfBirth":"12/03/1985","photographs":[{"photoID":1,"fileName":"http://dummyimage.com/180x201.bmp/dddddd/000000","dateOfPhoto":"09/20/2018","description":"Object-based"},{"photoID":2,"fileName":"http://dummyimage.com/233x142.jpg/5fa2dd/ffffff","dateOfPhoto":"01/11/2016","description":"Synergized"}],"Location":[{"locationID":1,"street":"9416 Elka Terrace","city":"San Francisco","state":"California"}],"description":"Reactive"},
{"name":"Leigh Cheake","phoneNumber":"877-411-2909","dateOfBirth":"08/16/1983","photographs":[{"photoID":1,"fileName":"http://dummyimage.com/161x140.png/dddddd/000000","dateOfPhoto":"07/13/2018","description":"Persevering"},{"photoID":2,"fileName":"http://dummyimage.com/203x196.bmp/ff4444/ffffff","dateOfPhoto":"01/10/2018","description":"Team-oriented"}],"Location":[{"locationID":1,"street":"72 Comanche Road","city":"Delray Beach","state":"Florida"}],"description":"forecast"},
{"name":"Tisha Radolf","phoneNumber":"540-976-0274","dateOfBirth":"08/27/1948","photographs":[{"photoID":1,"fileName":"http://dummyimage.com/243x216.png/5fa2dd/ffffff","dateOfPhoto":"07/15/2018","description":"Focused"},{"photoID":2,"fileName":"http://dummyimage.com/207x185.bmp/5fa2dd/ffffff","dateOfPhoto":"04/17/2017","description":"actuating"}],"Location":[{"locationID":1,"street":"1451 Lillian Point","city":"Pittsburgh","state":"Pennsylvania"}],"description":"Secured"},
{"name":"Thalia Woodhead","phoneNumber":"129-302-0922","dateOfBirth":"03/06/1957","photographs":[{"photoID":1,"fileName":"http://dummyimage.com/146x189.bmp/5fa2dd/ffffff","dateOfPhoto":"12/17/2016","description":"productivity"},{"photoID":2,"fileName":"http://dummyimage.com/115x156.bmp/ff4444/ffffff","dateOfPhoto":"10/19/2016","description":"Versatile"}],"Location":[{"locationID":1,"street":"5 Express Crossing","city":"Kansas City","state":"Kansas"}],"description":"motivating"},
{"name":"Brooke Dixcee","phoneNumber":"338-861-7315","dateOfBirth":"01/22/1969","photographs":[{"photoID":1,"fileName":"http://dummyimage.com/162x156.png/cc0000/ffffff","dateOfPhoto":"12/25/2017","description":"access"},{"photoID":2,"fileName":"http://dummyimage.com/113x149.bmp/ff4444/ffffff","dateOfPhoto":"09/12/2016","description":"moratorium"}],"Location":[{"locationID":1,"street":"75966 Lyons Point","city":"Saint Paul","state":"Minnesota"}],"description":"Open-source"},
{"name":"Ashbey Olland","phoneNumber":"413-423-6075","dateOfBirth":"01/25/1959","photographs":[{"photoID":1,"fileName":"http://dummyimage.com/128x169.bmp/cc0000/ffffff","dateOfPhoto":"05/06/2017","description":"3rd generation"},{"photoID":2,"fileName":"http://dummyimage.com/112x178.png/ff4444/ffffff","dateOfPhoto":"06/21/2016","description":"encryption"}],"Location":[{"locationID":1,"street":"717 Duke Street","city":"Daytona Beach","state":"Florida"}],"description":"neutral"},
{"name":"Sylas Fronek","phoneNumber":"816-560-1308","dateOfBirth":"12/11/1999","photographs":[{"photoID":1,"fileName":"http://dummyimage.com/204x197.jpg/dddddd/000000","dateOfPhoto":"09/11/2018","description":"Graphical User Interface"},{"photoID":2,"fileName":"http://dummyimage.com/111x248.png/5fa2dd/ffffff","dateOfPhoto":"04/27/2018","description":"maximized"}],"Location":[{"locationID":1,"street":"766 Veith Pass","city":"Phoenix","state":"Arizona"}],"description":"analyzing"},
{"name":"Geri Mafham","phoneNumber":"439-912-0385","dateOfBirth":"01/03/1965","photographs":[{"photoID":1,"fileName":"http://dummyimage.com/147x224.jpg/dddddd/000000","dateOfPhoto":"12/30/2016","description":"implementation"},{"photoID":2,"fileName":"http://dummyimage.com/176x110.bmp/ff4444/ffffff","dateOfPhoto":"06/08/2017","description":"context-sensitive"}],"Location":[{"locationID":1,"street":"82 Sugar Alley","city":"Lansing","state":"Michigan"}],"description":"Expanded"},
{"name":"El MacGoun","phoneNumber":"361-212-0209","dateOfBirth":"04/14/1996","photographs":[{"photoID":1,"fileName":"http://dummyimage.com/247x222.jpg/ff4444/ffffff","dateOfPhoto":"11/25/2016","description":"De-engineered"},{"photoID":2,"fileName":"http://dummyimage.com/158x228.jpg/5fa2dd/ffffff","dateOfPhoto":"12/21/2015","description":"function"}],"Location":[{"locationID":1,"street":"40 Kim Hill","city":"Oklahoma City","state":"Oklahoma"}],"description":"complexity"},
{"name":"Emelina Luparti","phoneNumber":"259-981-2926","dateOfBirth":"07/09/1993","photographs":[{"photoID":1,"fileName":"http://dummyimage.com/146x228.png/dddddd/000000","dateOfPhoto":"08/19/2017","description":"Adaptive"},{"photoID":2,"fileName":"http://dummyimage.com/172x155.png/cc0000/ffffff","dateOfPhoto":"07/27/2018","description":"analyzer"}],"Location":[{"locationID":1,"street":"1371 Blackbird Road","city":"Madison","state":"Wisconsin"}],"description":"Synergistic"},
{"name":"Renado Cavan","phoneNumber":"900-161-3136","dateOfBirth":"01/05/1974","photographs":[{"photoID":1,"fileName":"http://dummyimage.com/120x163.png/dddddd/000000","dateOfPhoto":"04/24/2016","description":"explicit"},{"photoID":2,"fileName":"http://dummyimage.com/166x242.png/5fa2dd/ffffff","dateOfPhoto":"01/18/2018","description":"secondary"}],"Location":[{"locationID":1,"street":"43 Browning Way","city":"Kissimmee","state":"Florida"}],"description":"forecast"},
{"name":"Wilt Macbane","phoneNumber":"260-591-4958","dateOfBirth":"04/10/2014","photographs":[{"photoID":1,"fileName":"http://dummyimage.com/218x188.jpg/ff4444/ffffff","dateOfPhoto":"08/24/2017","description":"help-desk"},{"photoID":2,"fileName":"http://dummyimage.com/108x224.png/5fa2dd/ffffff","dateOfPhoto":"01/03/2016","description":"parallelism"}],"Location":[{"locationID":1,"street":"8 Mosinee Court","city":"Olympia","state":"Washington"}],"description":"Object-based"},
{"name":"Felipa MacFadzan","phoneNumber":"380-747-5013","dateOfBirth":"10/28/1953","photographs":[{"photoID":1,"fileName":"http://dummyimage.com/117x209.png/dddddd/000000","dateOfPhoto":"10/27/2015","description":"client-driven"},{"photoID":2,"fileName":"http://dummyimage.com/237x121.png/cc0000/ffffff","dateOfPhoto":"04/07/2018","description":"disintermediate"}],"Location":[{"locationID":1,"street":"16 Merry Terrace","city":"Herndon","state":"Virginia"}],"description":"global"},
{"name":"Bethanne Prozescky","phoneNumber":"480-379-1673","dateOfBirth":"04/16/1996","photographs":[{"photoID":1,"fileName":"http://dummyimage.com/163x165.png/cc0000/ffffff","dateOfPhoto":"06/27/2018","description":"well-modulated"},{"photoID":2,"fileName":"http://dummyimage.com/129x190.png/dddddd/000000","dateOfPhoto":"04/11/2017","description":"Inverse"}],"Location":[{"locationID":1,"street":"1 Kipling Trail","city":"Dayton","state":"Ohio"}],"description":"composite"},
{"name":"Betteann Kurt","phoneNumber":"512-498-7447","dateOfBirth":"06/12/1936","photographs":[{"photoID":1,"fileName":"http://dummyimage.com/244x120.png/5fa2dd/ffffff","dateOfPhoto":"08/29/2018","description":"full-range"},{"photoID":2,"fileName":"http://dummyimage.com/215x181.bmp/dddddd/000000","dateOfPhoto":"08/21/2017","description":"budgetary management"}],"Location":[{"locationID":1,"street":"428 Toban Pass","city":"El Paso","state":"Texas"}],"description":"modular"},
{"name":"Dimitri Doring","phoneNumber":"453-485-5343","dateOfBirth":"06/15/2007","photographs":[{"photoID":1,"fileName":"http://dummyimage.com/155x222.bmp/cc0000/ffffff","dateOfPhoto":"05/07/2018","description":"info-mediaries"},{"photoID":2,"fileName":"http://dummyimage.com/116x211.bmp/ff4444/ffffff","dateOfPhoto":"08/02/2018","description":"internet solution"}],"Location":[{"locationID":1,"street":"206 Towne Pass","city":"Colorado Springs","state":"Colorado"}],"description":"solution-oriented"},
{"name":"Ignacius Aery","phoneNumber":"733-518-7262","dateOfBirth":"04/09/2016","photographs":[{"photoID":1,"fileName":"http://dummyimage.com/110x242.jpg/cc0000/ffffff","dateOfPhoto":"09/10/2018","description":"Down-sized"},{"photoID":2,"fileName":"http://dummyimage.com/165x208.bmp/dddddd/000000","dateOfPhoto":"05/12/2017","description":"parallelism"}],"Location":[{"locationID":1,"street":"8140 Old Shore Circle","city":"Mobile","state":"Alabama"}],"description":"Right-sized"},
{"name":"Richard Rider","phoneNumber":"811-370-5740","dateOfBirth":"08/05/1947","photographs":[{"photoID":1,"fileName":"http://dummyimage.com/139x127.bmp/5fa2dd/ffffff","dateOfPhoto":"11/10/2017","description":"uniform"},{"photoID":2,"fileName":"http://dummyimage.com/166x200.jpg/dddddd/000000","dateOfPhoto":"09/06/2017","description":"Seamless"}],"Location":[{"locationID":1,"street":"4 Saint Paul Point","city":"Melbourne","state":"Florida"}],"description":"high-level"},
{"name":"Bradly Maliffe","phoneNumber":"164-412-0725","dateOfBirth":"06/20/1993","photographs":[{"photoID":1,"fileName":"http://dummyimage.com/152x219.bmp/5fa2dd/ffffff","dateOfPhoto":"01/01/2016","description":"knowledge user"},{"photoID":2,"fileName":"http://dummyimage.com/238x227.bmp/5fa2dd/ffffff","dateOfPhoto":"12/14/2017","description":"Phased"}],"Location":[{"locationID":1,"street":"14938 Basil Trail","city":"Salem","state":"Oregon"}],"description":"Polarised"},
{"name":"Ellary Melland","phoneNumber":"340-998-3068","dateOfBirth":"10/24/1939","photographs":[{"photoID":1,"fileName":"http://dummyimage.com/240x163.png/cc0000/ffffff","dateOfPhoto":"12/05/2016","description":"User-friendly"},{"photoID":2,"fileName":"http://dummyimage.com/134x240.bmp/dddddd/000000","dateOfPhoto":"02/15/2018","description":"global"}],"Location":[{"locationID":1,"street":"35043 Fallview Crossing","city":"Albany","state":"New York"}],"description":"empowering"},
{"name":"Danica Owenson","phoneNumber":"291-962-2426","dateOfBirth":"07/01/1978","photographs":[{"photoID":1,"fileName":"http://dummyimage.com/246x223.jpg/dddddd/000000","dateOfPhoto":"06/30/2017","description":"Multi-lateral"},{"photoID":2,"fileName":"http://dummyimage.com/149x126.bmp/cc0000/ffffff","dateOfPhoto":"03/19/2017","description":"content-based"}],"Location":[{"locationID":1,"street":"10274 Warner Lane","city":"Columbus","state":"Ohio"}],"description":"directional"},
{"name":"Edgar Povah","phoneNumber":"702-138-9836","dateOfBirth":"09/11/2008","photographs":[{"photoID":1,"fileName":"http://dummyimage.com/124x148.jpg/ff4444/ffffff","dateOfPhoto":"11/21/2016","description":"Business-focused"},{"photoID":2,"fileName":"http://dummyimage.com/230x157.jpg/5fa2dd/ffffff","dateOfPhoto":"03/13/2016","description":"scalable"}],"Location":[{"locationID":1,"street":"51 Manufacturers Circle","city":"Reno","state":"Nevada"}],"description":"holistic"},
{"name":"Ashil Grimmolby","phoneNumber":"766-366-3660","dateOfBirth":"10/27/1945","photographs":[{"photoID":1,"fileName":"http://dummyimage.com/215x187.png/cc0000/ffffff","dateOfPhoto":"05/27/2017","description":"Quality-focused"},{"photoID":2,"fileName":"http://dummyimage.com/120x149.png/ff4444/ffffff","dateOfPhoto":"06/27/2017","description":"Organized"}],"Location":[{"locationID":1,"street":"9582 Dennis Terrace","city":"Tucson","state":"Arizona"}],"description":"well-modulated"},
{"name":"Luigi Marney","phoneNumber":"552-228-1419","dateOfBirth":"04/20/2012","photographs":[{"photoID":1,"fileName":"http://dummyimage.com/125x225.jpg/cc0000/ffffff","dateOfPhoto":"06/14/2016","description":"context-sensitive"},{"photoID":2,"fileName":"http://dummyimage.com/220x217.png/cc0000/ffffff","dateOfPhoto":"12/08/2015","description":"Expanded"}],"Location":[{"locationID":1,"street":"01184 Hauk Way","city":"Newport News","state":"Virginia"}],"description":"Grass-roots"},
{"name":"Annie Mickleburgh","phoneNumber":"660-543-1356","dateOfBirth":"12/25/1995","photographs":[{"photoID":1,"fileName":"http://dummyimage.com/160x233.jpg/cc0000/ffffff","dateOfPhoto":"05/06/2016","description":"Cross-group"},{"photoID":2,"fileName":"http://dummyimage.com/241x176.jpg/5fa2dd/ffffff","dateOfPhoto":"07/19/2018","description":"Integrated"}],"Location":[{"locationID":1,"street":"63447 Corben Point","city":"Jefferson City","state":"Missouri"}],"description":"Down-sized"},
{"name":"Phil Sparkes","phoneNumber":"257-339-6876","dateOfBirth":"01/09/1998","photographs":[{"photoID":1,"fileName":"http://dummyimage.com/122x246.jpg/cc0000/ffffff","dateOfPhoto":"08/08/2017","description":"Down-sized"},{"photoID":2,"fileName":"http://dummyimage.com/107x242.png/cc0000/ffffff","dateOfPhoto":"08/13/2016","description":"Ameliorated"}],"Location":[{"locationID":1,"street":"161 Utah Lane","city":"Saint Louis","state":"Missouri"}],"description":"initiative"},
{"name":"Travus Waycot","phoneNumber":"173-868-2081","dateOfBirth":"12/26/2006","photographs":[{"photoID":1,"fileName":"http://dummyimage.com/127x232.bmp/5fa2dd/ffffff","dateOfPhoto":"08/17/2017","description":"solution"},{"photoID":2,"fileName":"http://dummyimage.com/147x197.jpg/cc0000/ffffff","dateOfPhoto":"02/20/2018","description":"benchmark"}],"Location":[{"locationID":1,"street":"8456 Loomis Park","city":"Inglewood","state":"California"}],"description":"Programmable"},
{"name":"Shena Acreman","phoneNumber":"535-163-2264","dateOfBirth":"12/18/1961","photographs":[{"photoID":1,"fileName":"http://dummyimage.com/211x201.jpg/cc0000/ffffff","dateOfPhoto":"07/08/2018","description":"success"},{"photoID":2,"fileName":"http://dummyimage.com/250x164.bmp/5fa2dd/ffffff","dateOfPhoto":"02/17/2016","description":"methodical"}],"Location":[{"locationID":1,"street":"84025 American Parkway","city":"Montgomery","state":"Alabama"}],"description":"infrastructure"},
{"name":"Fancie Fagan","phoneNumber":"308-386-1814","dateOfBirth":"08/13/1965","photographs":[{"photoID":1,"fileName":"http://dummyimage.com/101x108.png/cc0000/ffffff","dateOfPhoto":"06/04/2017","description":"User-friendly"},{"photoID":2,"fileName":"http://dummyimage.com/136x224.jpg/dddddd/000000","dateOfPhoto":"05/30/2016","description":"Ergonomic"}],"Location":[{"locationID":1,"street":"2355 Oak Valley Lane","city":"Huntsville","state":"Alabama"}],"description":"info-mediaries"},
{"name":"Zebulon Graffin","phoneNumber":"309-535-4689","dateOfBirth":"11/07/1988","photographs":[{"photoID":1,"fileName":"http://dummyimage.com/169x104.png/5fa2dd/ffffff","dateOfPhoto":"04/29/2016","description":"Assimilated"},{"photoID":2,"fileName":"http://dummyimage.com/109x188.jpg/ff4444/ffffff","dateOfPhoto":"07/23/2016","description":"standardization"}],"Location":[{"locationID":1,"street":"36560 Merchant Road","city":"Shawnee Mission","state":"Kansas"}],"description":"coherent"},
{"name":"Nanete Cockaday","phoneNumber":"431-261-6781","dateOfBirth":"06/09/1936","photographs":[{"photoID":1,"fileName":"http://dummyimage.com/236x245.jpg/dddddd/000000","dateOfPhoto":"09/03/2018","description":"alliance"},{"photoID":2,"fileName":"http://dummyimage.com/100x249.jpg/5fa2dd/ffffff","dateOfPhoto":"11/04/2017","description":"paradigm"}],"Location":[{"locationID":1,"street":"9 Texas Trail","city":"Lehigh Acres","state":"Florida"}],"description":"concept"},
{"name":"Cathrin Shadwick","phoneNumber":"917-787-8002","dateOfBirth":"05/01/1936","photographs":[{"photoID":1,"fileName":"http://dummyimage.com/244x146.png/cc0000/ffffff","dateOfPhoto":"10/13/2018","description":"Multi-channelled"},{"photoID":2,"fileName":"http://dummyimage.com/217x193.bmp/5fa2dd/ffffff","dateOfPhoto":"04/03/2016","description":"systematic"}],"Location":[{"locationID":1,"street":"37 Chive Crossing","city":"Boston","state":"Massachusetts"}],"description":"ability"},
{"name":"Parrnell Bruggen","phoneNumber":"238-979-8373","dateOfBirth":"03/07/1957","photographs":[{"photoID":1,"fileName":"http://dummyimage.com/156x110.png/5fa2dd/ffffff","dateOfPhoto":"08/12/2018","description":"frame"},{"photoID":2,"fileName":"http://dummyimage.com/220x212.bmp/5fa2dd/ffffff","dateOfPhoto":"03/14/2017","description":"Triple-buffered"}],"Location":[{"locationID":1,"street":"65 Southridge Alley","city":"Colorado Springs","state":"Colorado"}],"description":"functionalities"},
{"name":"Katharyn Taylo","phoneNumber":"573-972-9337","dateOfBirth":"08/10/1958","photographs":[{"photoID":1,"fileName":"http://dummyimage.com/125x199.jpg/ff4444/ffffff","dateOfPhoto":"12/08/2016","description":"mission-critical"},{"photoID":2,"fileName":"http://dummyimage.com/137x174.png/dddddd/000000","dateOfPhoto":"08/27/2016","description":"moderator"}],"Location":[{"locationID":1,"street":"7931 Orin Pass","city":"Bradenton","state":"Florida"}],"description":"Devolved"},
{"name":"Bella Samweyes","phoneNumber":"718-549-7455","dateOfBirth":"07/26/1985","photographs":[{"photoID":1,"fileName":"http://dummyimage.com/123x102.bmp/ff4444/ffffff","dateOfPhoto":"05/12/2017","description":"synergy"},{"photoID":2,"fileName":"http://dummyimage.com/106x193.png/cc0000/ffffff","dateOfPhoto":"08/02/2016","description":"non-volatile"}],"Location":[{"locationID":1,"street":"8 Brown Drive","city":"Fresno","state":"California"}],"description":"modular"},
{"name":"Ingeberg Shawl","phoneNumber":"542-365-8709","dateOfBirth":"12/30/1978","photographs":[{"photoID":1,"fileName":"http://dummyimage.com/234x249.bmp/dddddd/000000","dateOfPhoto":"01/27/2018","description":"value-added"},{"photoID":2,"fileName":"http://dummyimage.com/249x199.bmp/cc0000/ffffff","dateOfPhoto":"11/24/2016","description":"conglomeration"}],"Location":[{"locationID":1,"street":"08107 Goodland Point","city":"San Diego","state":"California"}],"description":"Right-sized"},
{"name":"Karie Rodman","phoneNumber":"499-229-0662","dateOfBirth":"12/28/1945","photographs":[{"photoID":1,"fileName":"http://dummyimage.com/196x234.bmp/dddddd/000000","dateOfPhoto":"07/17/2016","description":"Pre-emptive"},{"photoID":2,"fileName":"http://dummyimage.com/137x185.jpg/5fa2dd/ffffff","dateOfPhoto":"01/28/2017","description":"Optional"}],"Location":[{"locationID":1,"street":"9 Fallview Circle","city":"Providence","state":"Rhode Island"}],"description":"definition"},
{"name":"Caspar Filipychev","phoneNumber":"752-311-7045","dateOfBirth":"04/23/1983","photographs":[{"photoID":1,"fileName":"http://dummyimage.com/188x171.png/dddddd/000000","dateOfPhoto":"08/09/2017","description":"synergy"},{"photoID":2,"fileName":"http://dummyimage.com/175x157.jpg/5fa2dd/ffffff","dateOfPhoto":"09/09/2018","description":"Synergistic"}],"Location":[{"locationID":1,"street":"460 Waubesa Parkway","city":"Zephyrhills","state":"Florida"}],"description":"adapter"},
{"name":"Sid Caddie","phoneNumber":"926-584-0861","dateOfBirth":"09/12/2000","photographs":[{"photoID":1,"fileName":"http://dummyimage.com/110x228.png/5fa2dd/ffffff","dateOfPhoto":"05/23/2017","description":"Fully-configurable"},{"photoID":2,"fileName":"http://dummyimage.com/165x229.jpg/5fa2dd/ffffff","dateOfPhoto":"03/20/2016","description":"fault-tolerant"}],"Location":[{"locationID":1,"street":"92 Independence Alley","city":"Honolulu","state":"Hawaii"}],"description":"hardware"},
{"name":"Carlye Cocking","phoneNumber":"806-859-0963","dateOfBirth":"12/07/1945","photographs":[{"photoID":1,"fileName":"http://dummyimage.com/177x127.jpg/dddddd/000000","dateOfPhoto":"04/15/2016","description":"matrix"},{"photoID":2,"fileName":"http://dummyimage.com/152x206.png/cc0000/ffffff","dateOfPhoto":"02/21/2017","description":"incremental"}],"Location":[{"locationID":1,"street":"9639 Ronald Regan Pass","city":"Albuquerque","state":"New Mexico"}],"description":"time-frame"},
{"name":"Jessa Dand","phoneNumber":"208-913-0608","dateOfBirth":"02/03/2002","photographs":[{"photoID":1,"fileName":"http://dummyimage.com/134x136.png/5fa2dd/ffffff","dateOfPhoto":"09/07/2016","description":"framework"},{"photoID":2,"fileName":"http://dummyimage.com/200x200.bmp/ff4444/ffffff","dateOfPhoto":"10/20/2018","description":"analyzer"}],"Location":[{"locationID":1,"street":"97263 Michigan Road","city":"San Francisco","state":"California"}],"description":"actuating"},
{"name":"Bartlett Elfes","phoneNumber":"768-964-1601","dateOfBirth":"01/30/1975","photographs":[{"photoID":1,"fileName":"http://dummyimage.com/242x146.jpg/5fa2dd/ffffff","dateOfPhoto":"01/17/2017","description":"interactive"},{"photoID":2,"fileName":"http://dummyimage.com/244x226.png/dddddd/000000","dateOfPhoto":"09/28/2018","description":"database"}],"Location":[{"locationID":1,"street":"897 Hudson Way","city":"Honolulu","state":"Hawaii"}],"description":"needs-based"},
{"name":"Wilmar Gulliver","phoneNumber":"960-118-9193","dateOfBirth":"03/09/1950","photographs":[{"photoID":1,"fileName":"http://dummyimage.com/243x223.png/cc0000/ffffff","dateOfPhoto":"08/10/2018","description":"multimedia"},{"photoID":2,"fileName":"http://dummyimage.com/185x234.bmp/dddddd/000000","dateOfPhoto":"11/26/2016","description":"Advanced"}],"Location":[{"locationID":1,"street":"7500 Morrow Way","city":"Grand Rapids","state":"Michigan"}],"description":"Synchronised"},
{"name":"Zelma Tunkin","phoneNumber":"599-275-5278","dateOfBirth":"02/22/1991","photographs":[{"photoID":1,"fileName":"http://dummyimage.com/184x115.png/cc0000/ffffff","dateOfPhoto":"05/11/2017","description":"Open-architected"},{"photoID":2,"fileName":"http://dummyimage.com/157x192.jpg/dddddd/000000","dateOfPhoto":"01/16/2017","description":"framework"}],"Location":[{"locationID":1,"street":"29710 Golf View Lane","city":"Florence","state":"South Carolina"}],"description":"Synergized"},
{"name":"Cynthy Palfreeman","phoneNumber":"561-930-7406","dateOfBirth":"02/19/1989","photographs":[{"photoID":1,"fileName":"http://dummyimage.com/213x228.png/5fa2dd/ffffff","dateOfPhoto":"02/03/2016","description":"bottom-line"},{"photoID":2,"fileName":"http://dummyimage.com/167x183.png/ff4444/ffffff","dateOfPhoto":"07/27/2018","description":"Realigned"}],"Location":[{"locationID":1,"street":"20426 Jackson Junction","city":"Athens","state":"Georgia"}],"description":"portal"},
{"name":"Cate Dreng","phoneNumber":"273-266-9569","dateOfBirth":"09/16/1992","photographs":[{"photoID":1,"fileName":"http://dummyimage.com/106x148.bmp/cc0000/ffffff","dateOfPhoto":"01/07/2016","description":"product"},{"photoID":2,"fileName":"http://dummyimage.com/134x109.jpg/cc0000/ffffff","dateOfPhoto":"04/01/2017","description":"Configurable"}],"Location":[{"locationID":1,"street":"26 Talmadge Circle","city":"Mesquite","state":"Texas"}],"description":"Cloned"},
{"name":"Dominik Going","phoneNumber":"405-952-3073","dateOfBirth":"06/04/1970","photographs":[{"photoID":1,"fileName":"http://dummyimage.com/202x249.jpg/dddddd/000000","dateOfPhoto":"10/22/2016","description":"Cloned"},{"photoID":2,"fileName":"http://dummyimage.com/135x201.bmp/dddddd/000000","dateOfPhoto":"01/25/2017","description":"projection"}],"Location":[{"locationID":1,"street":"759 Ronald Regan Point","city":"San Jose","state":"California"}],"description":"needs-based"},
{"name":"Arly Garret","phoneNumber":"845-861-2395","dateOfBirth":"03/11/1993","photographs":[{"photoID":1,"fileName":"http://dummyimage.com/105x152.bmp/dddddd/000000","dateOfPhoto":"04/08/2018","description":"knowledge base"},{"photoID":2,"fileName":"http://dummyimage.com/233x184.bmp/dddddd/000000","dateOfPhoto":"10/27/2017","description":"fresh-thinking"}],"Location":[{"locationID":1,"street":"172 Glacier Hill Crossing","city":"Albany","state":"New York"}],"description":"system engine"},
{"name":"Gray Kaysor","phoneNumber":"265-527-0146","dateOfBirth":"04/22/1945","photographs":[{"photoID":1,"fileName":"http://dummyimage.com/109x221.png/dddddd/000000","dateOfPhoto":"11/03/2016","description":"asymmetric"},{"photoID":2,"fileName":"http://dummyimage.com/101x102.bmp/ff4444/ffffff","dateOfPhoto":"09/18/2016","description":"complexity"}],"Location":[{"locationID":1,"street":"56866 Shasta Junction","city":"Mobile","state":"Alabama"}],"description":"zero administration"},
{"name":"Shanna Bollis","phoneNumber":"400-886-9102","dateOfBirth":"12/08/1965","photographs":[{"photoID":1,"fileName":"http://dummyimage.com/189x116.jpg/cc0000/ffffff","dateOfPhoto":"06/08/2017","description":"circuit"},{"photoID":2,"fileName":"http://dummyimage.com/191x149.bmp/dddddd/000000","dateOfPhoto":"08/20/2018","description":"software"}],"Location":[{"locationID":1,"street":"68141 Cordelia Center","city":"El Paso","state":"Texas"}],"description":"Cross-platform"},
{"name":"Gibbie Zupo","phoneNumber":"668-287-2706","dateOfBirth":"10/20/1975","photographs":[{"photoID":1,"fileName":"http://dummyimage.com/148x236.jpg/dddddd/000000","dateOfPhoto":"08/03/2017","description":"archive"},{"photoID":2,"fileName":"http://dummyimage.com/166x190.bmp/5fa2dd/ffffff","dateOfPhoto":"06/01/2017","description":"Customer-focused"}],"Location":[{"locationID":1,"street":"30199 Iowa Place","city":"Pensacola","state":"Florida"}],"description":"circuit"},
{"name":"Julie Bann","phoneNumber":"113-464-1371","dateOfBirth":"02/17/2005","photographs":[{"photoID":1,"fileName":"http://dummyimage.com/134x233.jpg/dddddd/000000","dateOfPhoto":"12/10/2015","description":"real-time"},{"photoID":2,"fileName":"http://dummyimage.com/107x127.bmp/cc0000/ffffff","dateOfPhoto":"10/28/2017","description":"Function-based"}],"Location":[{"locationID":1,"street":"945 Nelson Crossing","city":"Stockton","state":"California"}],"description":"Realigned"},
{"name":"Dallis Forsdike","phoneNumber":"745-500-8685","dateOfBirth":"04/14/1974","photographs":[{"photoID":1,"fileName":"http://dummyimage.com/115x204.jpg/cc0000/ffffff","dateOfPhoto":"01/18/2017","description":"Proactive"},{"photoID":2,"fileName":"http://dummyimage.com/217x169.png/dddddd/000000","dateOfPhoto":"12/13/2015","description":"Object-based"}],"Location":[{"locationID":1,"street":"66904 Sycamore Lane","city":"Oakland","state":"California"}],"description":"Polarised"},
{"name":"Henderson Gervaise","phoneNumber":"407-703-6092","dateOfBirth":"02/21/1944","photographs":[{"photoID":1,"fileName":"http://dummyimage.com/195x186.jpg/5fa2dd/ffffff","dateOfPhoto":"09/20/2017","description":"solution"},{"photoID":2,"fileName":"http://dummyimage.com/188x111.bmp/5fa2dd/ffffff","dateOfPhoto":"10/20/2016","description":"cohesive"}],"Location":[{"locationID":1,"street":"00 Harbort Place","city":"Durham","state":"North Carolina"}],"description":"Face to face"},
{"name":"Florina Plenderleith","phoneNumber":"509-392-7263","dateOfBirth":"07/28/1952","photographs":[{"photoID":1,"fileName":"http://dummyimage.com/149x167.bmp/ff4444/ffffff","dateOfPhoto":"02/13/2018","description":"installation"},{"photoID":2,"fileName":"http://dummyimage.com/114x170.png/dddddd/000000","dateOfPhoto":"02/20/2016","description":"contextually-based"}],"Location":[{"locationID":1,"street":"64722 Rowland Place","city":"Lynchburg","state":"Virginia"}],"description":"functionalities"},
{"name":"Dasha Norville","phoneNumber":"550-975-9905","dateOfBirth":"04/19/2000","photographs":[{"photoID":1,"fileName":"http://dummyimage.com/101x189.jpg/dddddd/000000","dateOfPhoto":"05/08/2018","description":"Proactive"},{"photoID":2,"fileName":"http://dummyimage.com/201x128.bmp/dddddd/000000","dateOfPhoto":"08/28/2016","description":"Reactive"}],"Location":[{"locationID":1,"street":"99 Derek Street","city":"Richmond","state":"California"}],"description":"local area network"},
{"name":"Kirstin Jerrom","phoneNumber":"345-263-8589","dateOfBirth":"03/05/1999","photographs":[{"photoID":1,"fileName":"http://dummyimage.com/114x112.png/ff4444/ffffff","dateOfPhoto":"11/11/2015","description":"Pre-emptive"},{"photoID":2,"fileName":"http://dummyimage.com/157x225.png/ff4444/ffffff","dateOfPhoto":"09/09/2017","description":"Down-sized"}],"Location":[{"locationID":1,"street":"5 Shasta Court","city":"Austin","state":"Texas"}],"description":"client-driven"},
{"name":"Renee Maulkin","phoneNumber":"985-478-1336","dateOfBirth":"01/30/2007","photographs":[{"photoID":1,"fileName":"http://dummyimage.com/107x114.jpg/5fa2dd/ffffff","dateOfPhoto":"08/26/2017","description":"model"},{"photoID":2,"fileName":"http://dummyimage.com/141x175.bmp/ff4444/ffffff","dateOfPhoto":"11/10/2017","description":"impactful"}],"Location":[{"locationID":1,"street":"1 Stuart Junction","city":"Cincinnati","state":"Ohio"}],"description":"architecture"},
{"name":"Carry Forth","phoneNumber":"540-854-7213","dateOfBirth":"12/13/1946","photographs":[{"photoID":1,"fileName":"http://dummyimage.com/104x247.png/cc0000/ffffff","dateOfPhoto":"04/09/2018","description":"Pre-emptive"},{"photoID":2,"fileName":"http://dummyimage.com/141x209.jpg/ff4444/ffffff","dateOfPhoto":"10/25/2016","description":"incremental"}],"Location":[{"locationID":1,"street":"67 Eastlawn Street","city":"Youngstown","state":"Ohio"}],"description":"Compatible"},
{"name":"Ernesta Stansall","phoneNumber":"777-116-2295","dateOfBirth":"10/05/1990","photographs":[{"photoID":1,"fileName":"http://dummyimage.com/250x197.png/ff4444/ffffff","dateOfPhoto":"05/02/2018","description":"local"},{"photoID":2,"fileName":"http://dummyimage.com/232x209.bmp/5fa2dd/ffffff","dateOfPhoto":"01/04/2018","description":"content-based"}],"Location":[{"locationID":1,"street":"23 Springs Park","city":"Cape Coral","state":"Florida"}],"description":"attitude-oriented"},
{"name":"Minette Barabich","phoneNumber":"895-511-1350","dateOfBirth":"01/10/1998","photographs":[{"photoID":1,"fileName":"http://dummyimage.com/213x231.bmp/5fa2dd/ffffff","dateOfPhoto":"08/01/2016","description":"Networked"},{"photoID":2,"fileName":"http://dummyimage.com/128x114.jpg/cc0000/ffffff","dateOfPhoto":"11/06/2017","description":"Realigned"}],"Location":[{"locationID":1,"street":"427 Clyde Gallagher Circle","city":"Indianapolis","state":"Indiana"}],"description":"intermediate"},
{"name":"Carlee Bougourd","phoneNumber":"714-621-2144","dateOfBirth":"06/24/1944","photographs":[{"photoID":1,"fileName":"http://dummyimage.com/132x140.png/cc0000/ffffff","dateOfPhoto":"08/09/2018","description":"knowledge base"},{"photoID":2,"fileName":"http://dummyimage.com/132x169.jpg/cc0000/ffffff","dateOfPhoto":"03/19/2017","description":"global"}],"Location":[{"locationID":1,"street":"93051 Acker Circle","city":"Laurel","state":"Maryland"}],"description":"complexity"},
{"name":"Dannie Sillars","phoneNumber":"704-348-1010","dateOfBirth":"09/04/1981","photographs":[{"photoID":1,"fileName":"http://dummyimage.com/182x120.png/cc0000/ffffff","dateOfPhoto":"07/02/2017","description":"Fundamental"},{"photoID":2,"fileName":"http://dummyimage.com/129x213.jpg/cc0000/ffffff","dateOfPhoto":"08/19/2016","description":"local area network"}],"Location":[{"locationID":1,"street":"8 Warner Hill","city":"Miami","state":"Florida"}],"description":"national"},
{"name":"Salomon Segeswoeth","phoneNumber":"571-254-1318","dateOfBirth":"03/13/1997","photographs":[{"photoID":1,"fileName":"http://dummyimage.com/171x115.bmp/5fa2dd/ffffff","dateOfPhoto":"12/28/2015","description":"composite"},{"photoID":2,"fileName":"http://dummyimage.com/232x130.jpg/cc0000/ffffff","dateOfPhoto":"12/27/2017","description":"Down-sized"}],"Location":[{"locationID":1,"street":"516 Sunnyside Hill","city":"Grand Rapids","state":"Michigan"}],"description":"4th generation"},
{"name":"Farleigh Maiden","phoneNumber":"405-288-8368","dateOfBirth":"02/18/2009","photographs":[{"photoID":1,"fileName":"http://dummyimage.com/131x190.png/5fa2dd/ffffff","dateOfPhoto":"03/03/2016","description":"explicit"},{"photoID":2,"fileName":"http://dummyimage.com/155x207.jpg/ff4444/ffffff","dateOfPhoto":"04/27/2018","description":"intermediate"}],"Location":[{"locationID":1,"street":"36 Schiller Center","city":"Washington","state":"District of Columbia"}],"description":"Persevering"},
{"name":"Regan Zavattero","phoneNumber":"929-656-6673","dateOfBirth":"12/25/2011","photographs":[{"photoID":1,"fileName":"http://dummyimage.com/188x106.png/dddddd/000000","dateOfPhoto":"06/01/2017","description":"Business-focused"},{"photoID":2,"fileName":"http://dummyimage.com/184x194.bmp/dddddd/000000","dateOfPhoto":"04/02/2018","description":"implementation"}],"Location":[{"locationID":1,"street":"0724 Melby Lane","city":"College Station","state":"Texas"}],"description":"alliance"},
{"name":"Cally Coles","phoneNumber":"363-756-0649","dateOfBirth":"12/21/1938","photographs":[{"photoID":1,"fileName":"http://dummyimage.com/169x138.png/ff4444/ffffff","dateOfPhoto":"09/26/2018","description":"Ergonomic"},{"photoID":2,"fileName":"http://dummyimage.com/217x179.png/cc0000/ffffff","dateOfPhoto":"12/05/2016","description":"Reduced"}],"Location":[{"locationID":1,"street":"8676 Buell Circle","city":"Shreveport","state":"Louisiana"}],"description":"Grass-roots"},
{"name":"Rani De Witt","phoneNumber":"489-434-9100","dateOfBirth":"05/28/1961","photographs":[{"photoID":1,"fileName":"http://dummyimage.com/188x158.png/cc0000/ffffff","dateOfPhoto":"06/16/2018","description":"Compatible"},{"photoID":2,"fileName":"http://dummyimage.com/217x140.bmp/ff4444/ffffff","dateOfPhoto":"02/12/2016","description":"exuding"}],"Location":[{"locationID":1,"street":"7602 Sheridan Place","city":"Chicago","state":"Illinois"}],"description":"Decentralized"},
{"name":"Randene Jeggo","phoneNumber":"762-587-1000","dateOfBirth":"01/07/1997","photographs":[{"photoID":1,"fileName":"http://dummyimage.com/143x110.jpg/cc0000/ffffff","dateOfPhoto":"09/20/2016","description":"6th generation"},{"photoID":2,"fileName":"http://dummyimage.com/204x108.bmp/dddddd/000000","dateOfPhoto":"11/20/2017","description":"Innovative"}],"Location":[{"locationID":1,"street":"51667 Haas Pass","city":"Littleton","state":"Colorado"}],"description":"Reactive"},
{"name":"Reggis Trees","phoneNumber":"830-553-2598","dateOfBirth":"10/25/1988","photographs":[{"photoID":1,"fileName":"http://dummyimage.com/232x241.jpg/ff4444/ffffff","dateOfPhoto":"06/30/2016","description":"adapter"},{"photoID":2,"fileName":"http://dummyimage.com/172x198.bmp/ff4444/ffffff","dateOfPhoto":"11/14/2017","description":"Down-sized"}],"Location":[{"locationID":1,"street":"8 Shopko Circle","city":"Oklahoma City","state":"Oklahoma"}],"description":"forecast"},
{"name":"Brewster Chettle","phoneNumber":"282-428-3227","dateOfBirth":"02/25/1985","photographs":[{"photoID":1,"fileName":"http://dummyimage.com/193x123.bmp/cc0000/ffffff","dateOfPhoto":"04/06/2018","description":"Multi-channelled"},{"photoID":2,"fileName":"http://dummyimage.com/186x153.png/dddddd/000000","dateOfPhoto":"03/06/2018","description":"24/7"}],"Location":[{"locationID":1,"street":"5 Westport Lane","city":"Champaign","state":"Illinois"}],"description":"help-desk"},
{"name":"Amabelle Rowthorne","phoneNumber":"809-768-3215","dateOfBirth":"03/10/1986","photographs":[{"photoID":1,"fileName":"http://dummyimage.com/247x248.jpg/5fa2dd/ffffff","dateOfPhoto":"09/28/2016","description":"coherent"},{"photoID":2,"fileName":"http://dummyimage.com/166x226.bmp/5fa2dd/ffffff","dateOfPhoto":"06/22/2017","description":"Compatible"}],"Location":[{"locationID":1,"street":"0 Loeprich Junction","city":"Charlotte","state":"North Carolina"}],"description":"Profit-focused"},
{"name":"Jade Pohling","phoneNumber":"491-513-5704","dateOfBirth":"02/26/1999","photographs":[{"photoID":1,"fileName":"http://dummyimage.com/194x230.png/cc0000/ffffff","dateOfPhoto":"03/22/2018","description":"Versatile"},{"photoID":2,"fileName":"http://dummyimage.com/167x238.jpg/dddddd/000000","dateOfPhoto":"02/02/2018","description":"Diverse"}],"Location":[{"locationID":1,"street":"77 Stone Corner Crossing","city":"Oklahoma City","state":"Oklahoma"}],"description":"User-friendly"},
{"name":"Angelo Armstead","phoneNumber":"161-212-3851","dateOfBirth":"09/06/2003","photographs":[{"photoID":1,"fileName":"http://dummyimage.com/191x172.jpg/5fa2dd/ffffff","dateOfPhoto":"05/17/2018","description":"Innovative"},{"photoID":2,"fileName":"http://dummyimage.com/139x240.png/5fa2dd/ffffff","dateOfPhoto":"07/02/2018","description":"hardware"}],"Location":[{"locationID":1,"street":"6 Maywood Trail","city":"San Antonio","state":"Texas"}],"description":"Polarised"}]